OPIS Truckstop ID,Truckstop Name,Address,City,State,Rack ID,Retail Price,lat,lon
7,WOODSHED OF BIG CABIN,"I-44, EXIT 283 & US-69",Big Cabin,OK,307,3.00733333,35.61810178271044,-78.8099125039731
9,KWIK TRIP #796,"I-94, EXIT 143 & US-12 & SR-21",Tomah,WI,420,3.28733333,44.260714596148745,-114.84266195608194
20,PILOT TRAVEL CENTER #1243,"I-8, EXIT 119 & SR-85",Gila Bend,AZ,930,3.899,40.97990912717108,-72.8489645177132
20,PILOT #1243,"I-8, EXIT 119 & SR-85",Gila Bend,AZ,930,3.899,38.97987726295555,-80.2463559409418
28,LITTLEFIELD EXPRESS #2,"I-540, EXIT 12 & US-71",Fort Smith,AR,645,3.399,32.34027960663655,-110.9374872224224
35,ACI TRUCK STOP,US-46,Columbia,NJ,90,3.079,32.33991780504304,-84.39960194009187
36,SHENANDOAH TRUCK CENTER,"I-81, EXIT 273 & SR-703/SR-292",Mount Jackson,VA,60,2.899,30.871254182522993,-100.75206386812215
44,CIRCLE K #2612042,"I-35,  EXIT 271",Jarrell,TX,595,2.919,42.992642186624025,-99.88526609618407
46,PETRO STOPPING CENTER #348,"I-85,  EXIT 22 & CR-138",Shorter,AL,720,3.154,39.01672517614813,-80.83549537805668
49,TA SEYMOUR TRAVEL CENTER,"I-65, EXIT 50 & US-50 & US-31",Seymour,IN,415,3.959,40.62108866694068,-71.86075960096339
50,TA COUNCIL BLUFFS TRAVEL CENTER,"I-29 & I-80, EXIT 3",Council Bluffs,IA,319,3.72566666,30.308767414437035,-113.66720635764031
56,TOPS TRUCK STOP,"I-94, EXIT 182 & US-83",Sterling,ND,390,3.51566666,44.54864778242992,-98.96848815605904
75,Good 2 Go #709,US-50,Montrose,CO,810,3.424,42.48663961200633,-95.95291959578482
77,OASIS TRAVEL PLAZA,US-13,Laurel,DE,243,3.229,33.18508666017414,-101.18440915225011
79,DELAWARE TRUCK PLAZA,US-13 & US-40,New Castle                              ,DE,243,3.249,32.72737450810651,-101.84054381418875
81,One9 #89,"I-75, EXIT 224",Ellenton,FL,225,3.439,32.751067647801506,-117.38656662192017
85,DOWNIEVILLE FUEL STOP,"I-70, EXIT 234",Dumont,CO,800,3.459,34.563633644393065,-85.72306897186883
91,MOLLYS FOOD & FUEL,"I-20 & ST 22, EXIT 55",Crawfordville                           ,GA,135,3.499,37.871346474483566,-98.18927914399774
105,TA SAGINAW I 75 TRAVEL CENTER,"I-75, EXIT 144-B",Bridgeport,MI,260,3.269,36.47917527963173,-110.26030986780366
105,TA SAGINAW I 75 TRAVEL CENTER,"I-75, EXIT 144-B",Bridgeport,MI,260,3.339,34.36843710297063,-79.19832488489658
105,TA SAGINAW I 75 TRAVEL CENTER,"I-75, EXIT 144-B",Bridgeport,MI,260,3.429,39.17779342083569,-79.87196259241861
105,TA SAGINAW I 75 TRAVEL CENTER,"I-75, EXIT 144-B",Bridgeport,MI,260,3.289,32.092407909780626,-95.68041859555531
105,TA SAGINAW I 75 TRAVEL CENTER,"I-75, EXIT 144-B",Bridgeport,MI,260,3.399,34.38216972802827,-105.07746694261198
105,TA SAGINAW I 75 TRAVEL CENTER,"I-75, EXIT 144-B",Bridgeport,MI,260,3.299,35.49542764940537,-88.09536371017738
118,Lupton Truck Stop #567,"I-40, EXIT 359",Lupton,AZ,580,3.299,36.84104976325554,-105.59239321112985
121,PETRO STOPPING CENTER #306,"I-10, EXIT 200",Eloy,AZ,930,3.474,41.777639420895206,-108.1996034838144
127,CIRCLE K #4700095,US-41,Henderson,KY,340,3.609,32.9951067323754,-83.47426729868367
128,THE EFFINGHAM CHROME SHOP,"I-57 & I-70, EXIT 159",Effingham                               ,IL,510,3.399,37.71351657620417,-117.98373801395246
128,THE EFFINGHAM CHROME SHOP,"I-57 & I-70, EXIT 159",Effingham                               ,IL,510,3.349,38.88621853293064,-115.2615764482703
128,THE EFFINGHAM CHROME SHOP,"I-57 & I-70, EXIT 159",Effingham                               ,IL,510,3.549,30.696756190799967,-119.6605912988205
135,LOVES TRAVEL STOP #766,"I-80, EXIT 27",Atkinson,IL,290,3.589,39.11317277852157,-112.3528406762287
135,LOVES TRAVEL STOP #766,"I-80, EXIT 27",Atkinson,IL,290,3.389,32.557861855309376,-116.55049956447702
135,LOVES TRAVEL STOP #766,"I-80, EXIT 27",Atkinson,IL,290,3.449,30.97577389477919,-70.20988161100408
147,SPEEDWAY #8039,"I-69, EXIT 234 & SR-67",Daleville,IN,375,3.624,44.2332830588,-105.55950150229552
149,RAYS TRUCK WASH,"I-69, EXIT 309 & US-30",Fort Wayne                              ,IN,370,3.59233333,44.484480496118394,-112.53659936653764
151,CUBBYS #2101,"I-80, EXIT 211 & SR-47",Gothenburg,NE,475,3.13233333,42.125960221746915,-107.9501871002041
159,PILOT TRAVEL CENTER #87,"I-10, EXIT 343",Jacksonville,FL,75,3.859,34.56920653760056,-73.19372142299326
159,PILOT TRAVEL CENTERS #87,"I-10, EXIT 343",Jacksonville,FL,75,3.859,31.46508171009576,-93.99198884878021
160,PILOT TRAVEL CENTERS #79,"I-12, EXIT 10 AT MILE 10",Denham Springs                          ,LA,600,3.23233333,40.263495397682355,-101.75909518460716
164,FLYING J TRAVEL PLAZA #650,"I-94, EXIT 15 B",Lake Station                            ,IN,365,3.809,36.60228740609402,-76.33042710453904
167,FLYING J TRAVEL PLAZA #653,RT 2 & I-65 EXIT 240,Hebron,IN,365,3.43566666,31.83057352267168,-100.25048647254837
174,Hop-In Food Stores,US-59 & SR-224,Nacogdoches                             ,TX,618,2.859,37.427653651669054,-103.2495715021152
184,SAPP BROS TRAVEL CENTER,"I-29 & I-80, EXIT 1B",Council Bluffs,IA,486,3.719,30.515827816728276,-109.63587387251323
186,COFFEE CUP FUEL STOP #5,"I-90, EXIT 154 & US-16",Moorcroft                               ,WY,822,3.239,43.639806031181735,-101.11015880452942
187,DUDLEYS CORNER,"I-35, EXIT 165 & SR-3",Latimer,IA,433,3.23233333,33.881699724000256,-104.1657821991537
191,KUM & GO #0302,"I-35, EXIT 193 & SR 106",Clear Lake,IA,433,3.18566666,39.93783426530973,-86.13480203509295
192,Brew Stuart Truckstop,"I-80, EXIT 93",Stuart                                  ,IA,320,3.099,34.67566614134117,-105.52086476646365
195,PETRO STOPPING CENTER #311,"I-40 & I-55, EXIT 280",West Memphis,AR,435,3.36733333,37.80102031766716,-91.14001267887193
198,SINCLAIR,"I-76, EXIT 115",Atwood,CO,800,3.299,38.200654190149194,-116.70539174840137
199,PETRO STOPPING CENTER #366,"I-70, EXIT 252",Salina,KS,523,3.80566666,32.7728168328829,-110.43554216517428
203,PILOT TRAVEL CENTER #31,"I-80/94, EXIT 2",Highland,IN,365,3.829,44.54376941646838,-99.62973641943256
203,PILOT TRAVEL CENTERS #31,"I-80/94, EXIT 2",Highland,IN,365,3.799,41.626992350416714,-73.15253730456523
207,MARATHON,SR-32,Sardinia                                ,OH,300,3.56566666,44.09248412346284,-101.13740071421523
216,CIRCLE K #2721593,"I-10, EXIT 50",Ocean Springs,MS,715,3.41566666,43.422410256414736,-86.7962939400083
217,NORTH 9TH 24/7,"I-70, EXIT 252",Salina,KS,523,3.02566666,38.968499682166275,-107.2456388789301
231,DERBY CITYS TRUCK PLAZA,"I-75, EXIT 62 & US-25",Mount Vernon,KY,410,2.999,43.82811352534675,-113.64832120133842
235,PILOT TRAVEL CENTERS #92,"I-75, EXIT 358",Ocala,FL,225,3.359,31.327387530778793,-117.07316999599749
235,PILOT TRAVEL CENTER #92,"I-75, EXIT 358",Ocala,FL,225,3.41233333,32.939742936287175,-104.72932507286244
240,LA 1 SOUTH TRUCKSTOP,"I-10, EXIT 153 & SR-1",Port Allen,LA,600,3.039,30.67840933365807,-112.1169486601546
243,SAVE,US-41 & SR-10,Lake Village,IN,399,3.179,34.879954961448966,-111.29947759919379
244,BIG D TRUCK TRAVEL PLAZA,"I-10, EXIT 92 & SR-95",Duson,LA,725,2.98233333,35.83015934534223,-81.9620345806525
248,Mardi Gras Truck Stop,"I-10, EXIT 236",New Orleans,LA,725,3.729,34.07023547660844,-119.2080964527563
250,GOLDEN OX TRUCK STOP,"I-70/US-40, EXIT 159 & US-183",Hays,KS,523,3.499,42.43106263727894,-92.10949371322828
253,LOVES TRAVEL STOP #450,"I-40, EXIT 280 & I-55, EXIT 4",West Memphis,AR,435,3.32566666,35.35129990040384,-101.02693097032676
256,BFS FOODS #66,"I-68/US-40, EXIT 22 & US-219",Grantsville                             ,MD,165,3.899,34.21401764531071,-94.67250000457264
257,PILOT TRAVEL CENTER #917- TOWN PUMP,I-15 & 31ST STREET EXIT 277,Great Falls                             ,MT,815,3.63566666,38.14044124737373,-91.85848813926985
263,CASEYS #3956,I-94 EXIT 16,Bridgman,MI,465,3.559,32.11386337462144,-104.3316152771361
267,CORNER MARKET #117,SR-154 & SR-129,Dodge City,KS,357,3.399,42.032954711310595,-105.24455699078574
269,PILOT TRAVEL CENTERS #24,"I-75, EXIT 15",Monroe                                  ,MI,325,3.299,31.118259655196564,-83.32990753325471
269,PILOT TRAVEL CENTERS #24,"I-75, EXIT 15",Monroe                                  ,MI,325,3.249,44.803304049007764,-76.43615059394214
269,PILOT TRAVEL CENTERS #24,"I-75, EXIT 15",Monroe                                  ,MI,325,3.439,41.58367153944986,-110.37091837707361
269,PILOT TRAVEL CENTERS #24,"I-75, EXIT 15",Monroe                                  ,MI,325,3.349,32.98073522301259,-115.11906197324255
269,PILOT TRAVEL CENTERS #24,"I-75, EXIT 15",Monroe                                  ,MI,325,3.559,30.082831756854034,-75.1102096803987
278,CARLISLE PLAZA,US-41,Carlisle,IN,510,3.499,42.23192142682251,-102.50522681763007
281,CIRCLE K #4700065,"I-65, EXIT 76 & US-31",Taylorsville,IN,375,3.399,40.60286015771426,-92.4341304668593
289,LOVES TRAVEL STOP #173,"I-70, MM 209",Lawrence,KS,553,3.229,40.93510752061481,-102.02284277399983
292,PETES #56,US-169 & CR-5000,Cherryvale,KS,307,3.23233333,41.569055200289185,-113.70988318269744
293,LOVES TRAVEL STOP #176,"I-35, MILE MARKER 97",Matfield Green,KS,336,3.25566666,31.110669776011356,-90.5334177526136
304,FL Roberts,"I-91, EXIT 4",Springfield,MA,100,3.599,35.37698592816409,-93.74295741151852
309,QUIKTRIP #231,"I-635, EXIT 3",Kansas City,KS,400,3.199,31.738035892876944,-109.85032204044013
323,SAPP BROS TRAVEL CENTER,"I-80, EXIT 126",Ogallala,NE,475,3.46566666,42.946551388133905,-97.40654776738612
326,FLYING J TRAVEL PLAZA #748,"I-15, EXIT 357",Willard                                 ,UT,835,3.749,39.34947190241337,-80.1526247992177
341,TA JACKSONVILLE SOUTH TRAVEL CENTER,"I-95, EXIT 329",Saint Johns,FL,75,3.469,34.963470372789736,-90.47869484460543
347,7-ELEVEN #40514,I-90/80-IN TOLL RD MM 22E,Portage,IN,365,3.99066666,30.953375254290354,-115.15413364665025
358,TA BINGHAMTON TRAVELCENTER,"I-81N, EXIT 2W & I-81S, EXIT 3",Binghamton,NY,32,3.769,34.66473482573493,-92.59892513854325
358,TA BINGHAMTON TRAVELCENTER,"I-81N, EXIT 2W & I-81S, EXIT 3",Binghamton,NY,32,3.689,34.87774983040121,-84.86308503552065
358,TA BINGHAMTON TRAVELCENTER,"I-81N, EXIT 2W & I-81S, EXIT 3",Binghamton,NY,32,3.699,40.94409267507096,-80.36482971096243
358,TA BINGHAMTON TRAVELCENTER,"I-81N, EXIT 2W & I-81S, EXIT 3",Binghamton,NY,32,3.739,39.563362070328196,-88.54412106828666
361,CIRCLE K #2726293,"I-295, EXIT 25",Jacksonville,FL,75,3.31566666,43.3081911386449,-112.36709177296082
368,WILTON TRAVEL PLAZA,"I-87, EXIT 16",Gansevoort                              ,NY,12,3.749,37.08322387742924,-84.49133667049196
368,WILTON TRAVEL PLAZA,"I-87, EXIT 16",Gansevoort                              ,NY,12,3.799,31.793913689074525,-86.13290769592419
372,GAS DEPOT,"I-94, EXIT 5",Hammond,IN,365,3.999,40.698671808344926,-118.77865585296834
381,7-Eleven #41830,US-69 & US-135,Jacksonville,TX,630,2.91566666,41.41177572925346,-99.41261662048784
387,Circle K #2709664,"I-8, EXIT 12",Yuma,AZ,930,3.489,38.419157963542446,-103.35248765188133
388,Pilot Travel Centers #14,"I-71, EXIT 131",Sunbury,OH,315,3.719,41.56450769931841,-86.52939678731784
391,PILOT TRAVEL CENTERS #13,"I-71, EXIT 209",Seville,OH,305,3.699,37.40693394546586,-109.19320938445397
403,TRUCKOMAT OF HEBRON,"I-70, EXIT 126 & SR-37",Hebron,OH,315,3.429,37.84099244072991,-90.45640385128708
407,FUEL MART #641,"I-80 & I-280, EXIT 71",Perrysburg                              ,OH,550,3.499,36.413115275378246,-74.33970190929139
421,PETRO STOPPING CENTER #316,"I-40 & I-35, EXIT 127",Oklahoma City,OK,483,3.30233333,30.381286901161427,-80.10988138956961
424,E EXPRESS,"I-40, EXIT 166",Choctaw,OK,483,2.899,31.618371404899566,-73.92711318917348
425,Neighbors Express,"I-16, EXIT 51",Dublin                                  ,GA,85,3.299,30.471437785301013,-71.07470165336551
442,WESTERN COOP,US-385 & SR-2,Alliance,NE,795,3.324,39.546156168956706,-119.46649364969186
455,MR FUEL #753,"I-95, EXIT 104 & SR-207",Ruther Glen,VA,180,3.26566666,34.715339716144896,-88.86293618112612
456,THE COUNTRY OASIS,US-24,Woodburn                                ,IN,370,3.399,37.62856036747054,-99.35803011205468
458,HAPPY HILLS GAS & COFFEE,I-29 EXIT 110,Rock Port,MO,400,3.399,43.613497108891394,-77.00727548324392
460,TRUCK STOP 44,I-20 EXIT 44,Gilbert,SC,135,3.079,33.73938343723312,-107.40926489954342
461,SPINX #271,"I-26, EXIT 145 & US-601",Orangeburg,SC,42,3.26233333,36.155743845534445,-70.9485255442462
469,LOAF N JUG #750010,US-160 & SR-17,Alamosa,CO,803,3.259,41.33326707814573,-89.31460152281264
474,KEWANEE 1 STOP,"I-20, EXIT 169 & US-80",Toomsuba,MS,705,3.299,33.431972482374334,-80.32312988855846
478,GASTRAK OF PEMBINA,"I-29, EXIT 215",Pembina                                 ,ND,355,3.299,31.154698647431896,-115.72002235886158
483,ALLSUPS #2387,US-54/SR-136/SR-3 & US-64,Guymon,OK,585,2.97566666,34.34627179370652,-110.82710576205675
486,LA NORIA CONV STORES,"I-35 N, EXIT 4",Laredo                                  ,TX,693,3.299,32.41831930881007,-82.07981634828984
489,EDDIES CORNER,US-87 & US-191,Moore,MT,815,3.749,43.9454647851386,-118.90067389803382
491,One9 #403,"I-75, EXIT 117",Heiskell,TN,405,2.999,42.12180569346626,-79.15610070531086
496,PILOT TRAVEL CENTERS #270,"I-40 & I-75, EXIT 374",Knoxville,TN,405,3.439,39.50105634765635,-119.30254906540442
509,LOVES TRAVEL STOPS #256,"I-10, EXIT 140B",Van Horn,TX,640,3.649,43.07190885281577,-87.14405804693634
509,LOVES TRAVEL STOP #256,"I-10, EXIT 140B",Van Horn,TX,640,3.649,42.05508115348672,-101.7453039884097
522,GO MART FOOD STORE #57,"I-70 & ST-285, EXIT 186",Lore City                               ,OH,430,3.179,32.79855088329054,-89.42525736404005
523,CIRCLE K #2723322,"I-985, EXIT 20 & SR-60",Gainesville,GA,18,3.26566666,43.388384977349666,-85.19842965054431
525,FASTBREAK,US-45 ALT,West Point,MS,705,3.059,38.09013362873476,-102.8762390406848
546,PLAZA 30,US-30,Wanatah,IN,365,3.499,42.111602327460936,-114.60187759445822
557,SAPP BROS TRAVEL CENTER,"I-80, EXIT 73",Peru,IL,290,3.389,43.441369498852396,-116.51770661258672
557,SAPP BROS TRAVEL CENTER,"I-80, EXIT 73",Peru,IL,290,3.589,34.77005212457796,-90.55319887187261
557,SAPP BROS TRAVEL CENTER,"I-80, EXIT 73",Peru,IL,290,3.449,31.65077886791515,-93.96723231329443
557,SAPP BROS TRAVEL CENTER,"I-80, EXIT 73",Peru,IL,290,3.289,33.41902743812913,-82.88994954394337
559,SHELL MORGAN ROAD TRUCK STOP,"I-40, EXIT 142",Maumelle,AR,695,3.20733333,36.40661682939385,-94.51322449980314
566,TA GARY TRAVEL CENTER,"I-80/I-94, EXIT 6",Gary,IN,365,3.83066666,42.27022148883739,-98.87771049845604
567,TA ELOY TRAVEL CENTER,"I-10 & I-8, EXIT 203",Eloy,AZ,930,3.459,42.910958748845154,-100.09564108818846
572,PILOT TRAVEL CENTER #881,"I-69, EXIT 309A",Fort Wayne                              ,IN,370,3.899,30.10428195796786,-118.67765487011663
572,PILOT TRAVEL CENTERS #881,"I-69, EXIT 309A",Fort Wayne                              ,IN,370,3.879,37.661209538663485,-103.22213991516715
576,PETRO STOPPING CENTER #343,"I-10, EXIT 76",Egan,LA,600,3.624,36.261165047231685,-71.1989921237753
578,LOVES TRAVEL STOP #449,"I-84, EXIT 17",Troutdale,OR,935,3.779,33.331617157060954,-76.32222118864556
579,FLYING J TRAVEL PLAZA #764,"I-80, EXIT 104 & US-191",Rock Springs,WY,835,3.67066666,31.797980510005242,-103.53109664828912
586,AMERISTAR TRAVEL PLAZA #120,"I-82, EXIT 80",Prosser,WA,925,4.399,35.06422757105442,-90.6102297466814
586,AMERISTAR TRAVEL PLAZA #120,"I-82, EXIT 80",Prosser,WA,925,4.559,44.14364555868779,-77.6351627232253
588,TA TUSCALOOSA TRAVEL CENTER,"I-20/I-59, EXIT 77",Cottondale,AL,615,2.964,34.84804398031133,-97.93628316249657
591,TA Concordia Travel Plaza,"I-70, EXIT 58 & SR-23",Concordia,MO,400,3.22566666,37.78185932615049,-119.10210681249245
599,Sapp Bros Travel Center,"I-80, EXIT 59 & SR-17J",Sidney,NE,475,3.50066666,40.54528438342767,-116.274476909068
602,JIFFY MART EXIT 18 TRUCK STOP,"I-89/SR-120, EXIT 18 & SR-120",Lebanon,NH,12,3.599,35.454444035689406,-94.48036393256467
614,TA MAYBROOK TRAVEL CENTER,"I-84, EXIT 5",Montgomery,NY,120,4.359,44.57673124081441,-71.52803121620607
628,KWIK FILL #227,"I-90,  EXIT 218",Geneva,OH,305,3.15233333,44.43670942413167,-85.33952288905661
629,FLYING J #850,TCH-16,Edmonton,AB,80,4.39948962,33.77673443738046,-116.45419042807153
629,FLYING J #850,TCH-16,Edmonton,AB,80,4.39625375,37.458727588385784,-110.53195621040686
629,FLYING J #850,TCH-16,Edmonton,AB,80,4.40695023,34.513174647251546,-81.4338428391575
629,FLYING J #850,TCH-16,Edmonton,AB,80,4.40630048,34.272607415662016,-77.92801200218776
629,FLYING J #850,TCH-16,Edmonton,AB,80,4.39722401,30.553304210317993,-89.11527069057045
629,FLYING J #850,TCH-16,Edmonton,AB,80,4.3981947,39.14346500969845,-87.77884151850917
636,UNION 76,"I-5, EXIT 233 E",Albany,OR,935,3.379,37.54018534843292,-118.58312748083077
651,ONE9 #1366,"I-40, EXIT 126 & US-641",Holladay,TN,460,2.98566666,30.77218126874984,-78.57348702092457
652,TA KNOXVILLE EAST TRAVEL CENTER,"I-40 & I-75, EXIT 374",Knoxville,TN,405,3.42566666,34.17969696354917,-80.58623959145851
659,FLYING J #869,HWY 2 SOUTH,Nanton,AB,50,4.39948962,43.623988289499806,-107.04824279483265
659,FLYING J #869,HWY 2 SOUTH,Nanton,AB,50,4.59317483,33.59342836000459,-84.56616400172464
659,FLYING J #869,HWY 2 SOUTH,Nanton,AB,50,4.59114784,32.17342308136835,-109.25726967875009
659,FLYING J #869,HWY 2 SOUTH,Nanton,AB,50,4.60163996,37.341791404163445,-117.98349194742435
659,FLYING J #869,HWY 2 SOUTH,Nanton,AB,50,4.59216111,44.78475681165901,-109.94317287048113
659,FLYING J #869,HWY 2 SOUTH,Nanton,AB,50,4.60231851,33.630829072672505,-111.06855616228502
669,PETRO STOPPING CENTER #350,"I-10,  EXIT 4",Canutillo,TX,640,3.499,40.08203321108818,-103.11260016325764
672,CROWN POINT TRUCK STOP,"I-295/US-130,EXIT 22",Thorofare,NJ,150,3.549,41.424294229930766,-99.0775251412271
680,TA EXPRESS SUMMIT,"I-29, EXIT 207 & US-12",Summit,SD,566,3.20566666,33.56456315988599,-94.5730554251146
684,7-ELEVEN #35101,"I-86/SR-17, EXIT 16",Randolph,NY,38,4.499,40.923245229177894,-96.16230622458359
689,FLYING EAGLE,"I-235, EXIT 4",Wichita,KS,570,3.499,35.516746990788796,-106.46626970173553
692,BP,US-63,Ottumwa,IA,489,3.399,39.48458745890369,-118.54146657129628
739,Arco #364420,US-23,Greenup,KY,255,3.649,39.50294566141342,-89.74491888814246
748,QUIKTRIP #4231,US-85,Evans,CO,800,3.17233333,38.03662026112138,-100.21275850763229
769,AYERCO #26,US-61/US-136,Alexandria,MO,345,3.01566666,31.354346550816125,-105.06639213062252
815,Kwik Trip #1508,"US-18/SR-151, EXIT 58",Barneveld,WI,420,3.489,42.52953743383857,-76.65294785847439
855,SPEEDWAY #7459,US-41 & SR-137,North Chicago,IL,293,3.379,34.81170097457604,-82.662834610092
855,SPEEDWAY #7459,US-41 & SR-137,North Chicago,IL,293,3.499,32.79777765599781,-77.11172258137789
855,SPEEDWAY #7459,US-41 & SR-137,North Chicago,IL,293,3.289,30.61162712332146,-95.25086026437695
863,Ocean Fuel,US-301/SR-73,Sylvania,GA,195,3.499,38.86339414782363,-113.45343739366112
906,PILOT TRAVEL CENTERS #429,"I-40, EXIT 280",West Memphis,AR,435,3.499,40.163465427634236,-85.18892819393638
906,PILOT TRAVEL CENTER #429,"I-40, EXIT 280",West Memphis,AR,435,3.291,30.248817433917843,-109.69631100314123
908,CIRCLE K #2704888,"I-65, EXIT 246 & SR-119",Pelham,AL,615,3.46566666,37.68139587448921,-97.93851654541416
912,PETRO STOPPING CENTER #319,"I-20/59,  EXIT 100",Mc Calla,AL,615,3.12566666,33.39743662796907,-116.74996055255558
936,CASEYS #4254,"I-40, EXIT 129",Conway,AR,695,3.03233333,39.677591856141746,-78.73457987885088
970,CIRCLE K #2702885,"I-17/SR-60, EXIT 199A",Phoenix,AZ,930,3.39233333,32.615496435074874,-113.70296794762497
977,PILOT TRAVEL CENTER #328,"I-10, EXIT 17",Quartzsite,AZ,930,3.959,40.36406607153699,-74.84512464753452
977,PILOT TRAVEL CENTERS #328,"I-10, EXIT 17",Quartzsite,AZ,930,3.959,35.80103019450806,-76.78846988692214
981,STINKER #85,"I-15, EXIT 93",Blackfoot,ID,825,3.53233333,44.050949831051014,-96.7708617780377
982,CIRCLE K #2701948,"I-8, EXIT 7 & SR-195",Yuma,AZ,900,3.56566666,32.0628141621899,-82.78158978480047
1028,FOUR STATES TRUCK STOP,"I-495, EXIT 4 & SR-9",New Castle,DE,243,3.449,35.11599526575388,-89.02774630909234
1028,FOUR STATES TRUCK STOP,"I-495, EXIT 4 & SR-9",New Castle,DE,243,3.399,31.702102818608836,-79.84621788311276
1042,Union 76,US-441 & SR-100A,Lake City,FL,75,3.56233333,43.87040427417844,-98.4097449607044
1043,ONE9 #1401,I-75 EXIT 414  & US-41,Lake City,FL,75,3.259,43.160090300714714,-80.7095757877825
1043,SHELL DBA ONE9 #1401,I-75 EXIT 414  & US-41,Lake City,FL,75,3.244,33.869124415727335,-96.8771591467426
1047,TA MARIANNA TRAVEL CENTER,"I-10/SR-8, EXIT 142 & SR-71",Marianna,FL,20,3.60733333,39.899760690512686,-72.9517106078603
1075,PILOT TRAVEL CENTER #68,"I-16 /SR-404, EXIT 51 & US-441",Dublin,GA,85,3.43233333,42.25833300301824,-95.68139495874263
1075,PILOT TRAVEL CENTERS #68,"I-16 /SR-404, EXIT 51 & US-441",Dublin,GA,85,3.399,38.32801217399194,-96.86903640331352
1106,CIRCLE K #2705367,"I-20, EXIT 172",Thomson,GA,16,3.399,37.9447586753401,-80.74640692182436
1112,BC AMPRIDE TRUCK PLAZA,US-59/SR-141,Denison,IA,527,3.399,33.62778436350678,-78.92111541195811
1115,KWIK STAR #704,SR-57/SR-14,Parkersburg,IA,565,3.58233333,31.396541517088487,-92.27554428394146
1121,TRAVELERS OASIS,"I-84, EXIT 182",Eden,ID,787,3.799,43.458236369299904,-111.01010932524623
1128,TA CHICAGO NORTH TRAVEL CENTER,"I-94/US-41, EXIT 1",Wadsworth,IL,444,3.819,43.506270857449955,-96.61208845212103
1128,TA CHICAGO NORTH TRAVEL CENTER,"I-94/US-41, EXIT 1",Wadsworth,IL,444,3.879,39.49652185909902,-71.59637485451609
1128,TA CHICAGO NORTH TRAVEL CENTER,"I-94/US-41, EXIT 1",Wadsworth,IL,444,3.779,35.08544686573051,-82.35069034804074
1128,TA CHICAGO NORTH TRAVEL CENTER,"I-94/US-41, EXIT 1",Wadsworth,IL,444,3.769,35.23814361918991,-79.4418698060434
1132,SPEEDWAY #7423,"I-57, EXIT 83",Ina,IL,293,3.249,40.88933518305359,-118.358725059038
1136,PILOT TRAVEL CENTER #171,"I-74, EXIT 206",Oakwood,IL,280,3.399,43.45665389928865,-96.60702686829201
1136,PILOT TRAVEL CENTER #171,"I-74, EXIT 206",Oakwood,IL,280,3.499,43.306296363976756,-87.66894331712223
1136,PILOT TRAVEL CENTER #171,"I-74, EXIT 206",Oakwood,IL,280,3.599,41.69813318786436,-78.49836581859626
1140,CIRCLE K #4701398,"I-55, EXIT 82 & SR-104",Divernon,IL,280,3.499,39.630474692314316,-117.53631732086143
1149,PILOT TRAVEL CENTER #30,"I-70, EXIT 96",Greenfield,IN,375,3.959,31.262099474925733,-77.37805571790634
1149,PILOT TRAVEL CENTERS #30,"I-70, EXIT 96",Greenfield,IN,375,3.959,32.424430711419205,-92.57995316290442
1151,SPEEDWAY #8061,"I-70, EXIT 115 & SR-109",Knightstown,IN,375,3.759,43.47831282790619,-110.134301471197
1154,CIRCLE K #2704691,SR-71 & CR-214,Cedar Creek,TX,595,3.199,39.09643589489385,-104.137239177515
1156,CIRCLE K #4700028,"I-74/US-421, EXIT 116 & SR-44",Shelbyville,IN,375,3.599,30.137955774249445,-105.90352241242196
1157,One9 #297,"I-70, EXIT 11 & SR-46",Terre Haute                             ,IN,510,3.43566666,31.522073142990482,-93.4570482855762
1158,PILOT TRAVEL CENTERS #36,US-30  & SR-49,Valparaiso,IN,365,3.869,39.95252653662084,-117.41571600444341
1158,PILOT TRAVEL CENTER #36,US-30  & SR-49,Valparaiso,IN,365,3.859,30.075923757693282,-112.07319207500382
1163,SHORT STOP #13,US-54,Emporia,KS,553,2.839,32.41212077126248,-79.36534783121088
1176,PILOT TRAVEL CENTERS #353,"I-75, EXIT 129",Georgetown,KY,410,3.20566666,38.23100684049879,-113.36980046265944
1179,PILOT TRAVEL CENTERS #399,"I-65, EXIT 105",Lebanon Junction,KY,415,3.609,40.3784279653904,-108.33018652709364
1196,SOUTHERN BELLE TRUCK STOP,US-61 & SR-964,Saint Francisville,LA,725,3.384,39.779418892539006,-97.33146971979214
1199,ALLTOWN MARKETS #306,"I-190, EXIT 7",Leominster,MA,178,3.68233333,33.3640396419084,-94.14395559433348
1202,ONE9 #290,"I-95, EXIT 93 & SR-222",Perryville,MD,22,3.599,40.68268832021304,-81.81947601929207
1204,PETRO STOPPING CENTER #321,"I-70 & I-57, EXIT 159",Effingham,IL,574,3.549,33.558736312452,-97.63337866669062
1204,PETRO STOPPING CENTER #321,"I-70 & I-57, EXIT 159",Effingham,IL,574,3.349,34.88099547238902,-80.50676894822305
1204,PETRO STOPPING CENTER #321,"I-70 & I-57, EXIT 159",Effingham,IL,574,3.439,41.19737107677037,-89.08268464772712
1204,PETRO STOPPING CENTER #321,"I-70 & I-57, EXIT 159",Effingham,IL,574,3.399,39.74449348570822,-114.34501302880888
1208,D AVENUE FUEL PLAZA,US-131,Kalamazoo,MI,465,3.499,42.738351157412666,-112.18342808035807
1208,D AVENUE FUEL PLAZA,US-131,Kalamazoo,MI,465,3.099,39.86419338450515,-98.14831372751146
1210,ROADHAWK TRAVEL CENTER,"I-94, EXIT 56 & SR-51",Paw Paw                                 ,MI,465,3.599,38.524629050032075,-100.15553034554802
1210,ROADHAWK TRAVEL CENTER,"I-94, EXIT 56 & SR-51",Paw Paw                                 ,MI,465,3.559,31.40512151742139,-82.82278651813527
1217,KWIK TRIP #250,"I-90, EXIT 179",Austin,MN,515,3.374,35.515737045891505,-90.9631430101324
1218,CASEYS #3658,SR-210,Pillager,MN,522,3.299,33.97803551522588,-100.59334594988754
1225,AYERCO #35,US-61 & US-61 BUS,Bowling Green,MO,494,3.01566666,33.65984465068625,-111.46198582748072
1234,Lamar Travel Plaza,US-71 & US-160,Lamar,MO,416,3.199,44.59515832128668,-108.65814488372524
1236,AYERCO #44,US-36 & US-24,Palmyra,MO,494,3.01566666,35.89646587000141,-91.22494907654705
1240,TEMP STOP #103,US-65,Sedalia,MO,400,3.199,43.3806983276567,-98.82805975501037
1247,SNAPPY MART #11,US-63 & SR-14,West Plains,MO,535,3.299,39.46707938995894,-94.2536245569664
1251,MAPCO #3009,US-72,Corinth,MS,435,3.154,41.922169553124725,-111.46612823488832
1256,DOUBLE QUICK #89,US-82/US-278,Greenville,MS,655,3.25566666,37.53955639657788,-86.85468738277171
1265,JOE JOES TRAVEL CENTER,US-78 & RED BANKS RD S,Red Banks,MS,435,2.97233333,38.65355826939539,-77.37306295720165
1304,LOVES TRAVEL STOP #667,"I-85, EXIT 152",Mebane,NC,65,3.94733333,37.387765407282956,-107.10302466065497
1315,CIRCLE K #2720218,US-421 BUS & US-15/US-501/US-1,Sanford,NC,177,3.08233333,32.92864481697067,-95.42428870840867
1325,SCOTCHMAN #3303,US-421 & US-74,Wilmington,NC,245,3.629,40.83678172892258,-71.22363354895491
1326,SPEEDWAY #7949,US-301/US-264 ALT & CR-1674,Wilson,NC,205,3.199,34.211585436612836,-103.33791297246361
1333,PUMP & PANTRY #15,US-30,Grand Island,NE,330,3.30733333,30.364739496471806,-90.24768275381194
1340,BORDENTOWN VALERO,"NJ TNPK, EXIT 7 & US-206",Bordentown,NJ,230,3.499,39.68208443860752,-115.49021498998778
1342,Delta,"I-80, EXIT 47B",Fairfield,NJ,115,3.20233333,32.656660191105736,-89.69924987602784
1344,BOLLA TRUCK STOP #193,US-202 & SR-17,Mahwah,NJ,115,3.53233333,44.106878765293715,-115.5184113347691
1348,GLOBAL,SR-73,Palmyra,NJ,150,3.359,44.30892865503881,-72.0382282338089
1356,LOVES TRAVEL STOP #257,"I-40 & HORIZON, EXIT 79",Milan,NM,580,3.59066666,43.72296585330673,-84.21686739638443
1364,7- ELEVEN #40507,"I-80/I-90, MM 56 WB",Rolling Prairie,IN,465,3.98233333,35.552380503831664,-80.59201059321468
1372,PILOT TRAVEL CENTER #469,"I-77, EXIT 101 & SR-627",Canton,OH,249,3.62233333,30.231849247933013,-84.79478196141815
1376,FUEL MART #782,"I-75, EXIT 118",Lima                                    ,OH,411,3.08566666,43.92477843881588,-90.51354819617671
1379,TA LODI TRAVEL CENTER,"I-71, EXIT 209 & I-76/US-224, EXIT 1",Seville,OH,305,3.739,36.422762224759715,-97.50436094572473
1384,SUNOCO,"I-80/I-90, EXIT 13 & US-20ALT/SR-15",Montpelier,OH,550,3.41566666,44.49982228565504,-77.08133101194687
1391,ONCUE EXPRESS #2045,"I-35, EXIT 203 & SR-15",Billings,OK,500,3.21566666,44.45429965633879,-72.15821662284685
1395,DOMINO FOOD AND FUEL #1,"I-40, EXIT 66",Clinton                                 ,OK,483,3.099,42.7951418320104,-95.04819135479593
1404,ONE9 #339,"I-74, EXIT 4 & SR-63",Covington,IN,375,3.26233333,34.416733381043784,-73.42324754223691
1414,SAC SHOP #507,"I-70, EXIT 12/161",Breezewood                              ,PA,14,4.099,35.77646592902888,-90.83335450057413
1424,GETTYSBURG TRAVEL PLAZA,US-15 & SR-394,Gettysburg,PA,70,3.899,42.76705007275285,-93.08079065517833
1428,CIRCLE K #4702408,"I-65, EXIT 168 & SR-38/SR-25",Lafayette,IN,375,3.43233333,34.75383007734416,-97.27586335223216
1432,KWIK FILL #259,"I-81, EXIT 57",Mechanicsburg                           ,PA,70,4.049,32.54239120029139,-109.535611923494
1444,PILOT TRAVEL CENTERS #346,"I-20, EXIT 92 & US-601",Lugoff,SC,135,3.43233333,38.352018936875254,-119.81401695909705
1445,PILOT TRAVEL CENTERS #402,"I-80, EXIT 367",Cheyenne,WY,795,3.709,44.04232161241171,-107.92468865719694
1447,HOT SPOT #3005,US-221,Chesnee,SC,210,3.199,40.440446950124596,-94.51384141982174
1453,EXPRESS STOP,US-278/SR-101/SR-6 & SR-113,Rockmart,GA,193,3.319,38.550917551340476,-101.00200238701237
1455,PETRO FLORENCE,"I-95, EXIT 169",Florence,SC,46,3.32566666,31.457647406561527,-97.57573859986832
1461,CIRCLE K #2705370,"I-26, EXIT 15 & US-176",Inman,SC,210,3.099,39.22510840048754,-70.96758902179752
1464,CIRCLE K #2723254,"I-20, EXIT 55 & SR-6",Lexington,SC,135,3.199,44.85080775156395,-102.48638146653363
1470,CIRCLE K #2705348,US-1,Beech Island,SC,135,3.159,32.10126022854786,-97.39085303199461
1479,TA SPARTANBURG TRAVEL CENTER,"I-85, EXIT 63 & SR-290",Duncan,SC,210,3.43233333,37.77494478545605,-113.32422243235902
1487,ROADRUNNER MARKET #6019,"I-81, EXIT 36 NORTH",Greeneville                             ,TN,405,3.499,43.16059607891933,-117.60211337815062
1492,MAPCO #3538,"I-24, EXIT 174",Chattanooga,TN,285,2.899,41.11152926631307,-81.22952427037526
1507,CIRCLE K #4703941,"I-55, EXIT 5A",Memphis,TN,435,3.189,40.45523611492902,-91.46584124640107
1516,LOVES TRAVEL STOP #261,I-27 EXIT 116,Amarillo,TX,585,3.23233333,40.53726125980664,-81.96475969780525
1531,CircleK #4702365,"I-74, EXIT 112 & SR-9",Shelbyville,IN,375,3.509,35.392367268296326,-112.50686005567242
1533,YESWAY #1157,US-62,Brownfield,TX,700,2.99233333,34.4038776639674,-91.40856144086545
1546,SHELL,"I-35, EXIT 86 & SR-85",Dilley,TX,740,3.099,42.140417332177705,-107.31787628293122
1548,TOOT N TOTUM #107,US-287,Dumas,TX,585,3.03233333,42.15170092018771,-108.596909154999
1552,STRIPES #40911,US-59 & SR-16,Freer,TX,625,3.099,43.006084778701556,-119.42369929735074
1555,SEIBERT TRAVEL PLAZA,"I-70, EXIT 405 & SR-59",Seibert,CO,800,3.499,43.69860828834707,-113.4829638215464
1560,CATTREZ,US-20 & SR-5,Irving,NY,38,2.899,37.67013598291407,-104.53659442501524
1560,CATTREZ,US-20 & SR-5,Irving,NY,38,2.999,37.522744420307994,-114.15606197045305
1562,I MART #108,"I-40, EXIT 108",Wildersville                            ,TN,435,3.099,41.97442768450163,-70.70707797945312
1567,KUM & GO #4110,"I-235, EXIT 11",Des Moines,IA,320,3.02733333,39.74945896166648,-104.56836757380246
1579,FLYING J TRAVEL PLAZA #924- TOWN PUMP,"I-15, EXIT 122 & I-90 MM220",Butte                                   ,MT,816,3.56566666,40.52950315886555,-113.4838026648836
1582,LOVES TRAVEL STOP #250,I-40 EXIT 60,Amarillo,TX,585,3.314,41.93689004154152,-110.04588435860211
1585,Stripes 7Fleet #42498,US-385 & CR-1910,Andrews,TX,710,3.369,43.350080127263496,-90.61483858292618
1590,ROAD RANGER #240,"I-80 & I-94, EXIT 15-A",Lake Station,IN,365,3.559,35.069927352773036,-116.79782380676058
1596,FLYING J #305,"I-40, EXIT 39",Jamestown,NM,580,3.44233333,35.63374428959916,-76.87829349294216
1597,7-ELEVEN #36156,"I-70 & SR-519, EXIT 25/333",Eighty Four,PA,165,4.999,31.409729097613035,-71.92501603814264
1599,ONVO TRAVEL PLAZA,"I-81, EXIT 10",Mc Graw,NY,220,3.439,38.67420211494261,-107.66262896663096
1599,ONVO TRAVEL PLAZA,"I-81, EXIT 10",Mc Graw,NY,220,3.459,30.53913410695113,-97.49523657045702
1602,CIRCLE K #2723387,US-98,Beaumont,MS,620,3.56566666,36.983970271986905,-118.89327744852514
1606,DONNAS TRAVEL PLAZA,"I-5, EXIT 202",Marysville,WA,962,4.559,38.13966952061365,-87.96448876363893
1610,TA BALTIMORE TRAVEL CENTER,"I-95, EXIT 57",Baltimore                               ,MD,22,4.759,34.298118781924266,-99.30369709737056
1618,GO MART FOOD STORE #33,US-33,Ripley                                  ,WV,44,3.499,38.86249890853516,-106.49707669492221
1621,CIRCLE K #2709337,"I-65, EXIT 262B",Birmingham                              ,AL,615,3.489,30.457503749085742,-109.65814446916957
1622,RACEWAY #6973,US-380 & SR-114/SR-101,Bridgeport,TX,630,2.78233333,30.560222831238217,-87.29884611706197
1623,SAPP BROS TRAVEL CENTER,"I-70 & I-270, EXIT 278",Commerce City,CO,800,3.389,42.33900840989487,-99.18914844838427
1625,PILOT TRAVEL CENTERS #60,"I-26, EXIT 159",Bowman                                  ,SC,42,3.43233333,35.40285962116894,-111.0170355485044
1632,PILOT TRAVEL CENTERS #266,"I-10, EXIT 139 & SR-292",Las Cruces                              ,NM,640,3.19066666,31.90590768977827,-85.5445459256588
1633,7-ELEVEN #36302,"I-35, EXIT 144",Von Ormy,TX,740,3.109,37.83364890082207,-91.74638584816532
1634,PILOT TRAVEL CENTERS #40,"I-94, EXIT 322",Oak Creek,WI,444,3.889,41.54990329647916,-77.0663972535252
1644,ALLSUPS CONVENIENCE STORE #2414,"I-20, EXIT 235",Roscoe,TX,575,2.929,33.237315412452645,-114.12620505617535
1646,SPEEDWAY #8310,US-6  & US-31,Plymouth,IN,465,3.609,39.343357137285004,-80.7166699027772
1647,SPEEDWAY #8305,US-41 & SR-312,Hammond,IN,290,3.76566666,31.28021197490652,-86.32416065913705
1653,ROAD RANGER #187,"I-55, EXIT 289",Chicago,IL,520,3.569,30.775225817529115,-114.24945315859512
1653,ROAD RANGER #187,"I-55, EXIT 289",Chicago,IL,520,3.599,37.97031947352222,-85.25896350641396
1654,CEFCO #3,US-77/US190/SR-36,Cameron,TX,670,2.989,38.1095268241516,-97.92263555600849
1661,CHEVRON,"I-20, EXIT 101 & SR-151",Calhoun,LA,590,3.159,39.5614485224731,-72.75076072220784
1669,BETTY BEAVERS TRUCKSTOP,"I-90, EXIT 28",Fultonville,NY,12,3.149,40.891370005839924,-112.91943246910503
1669,BETTY BEAVERS TRUCKSTOP,"I-90, EXIT 28",Fultonville,NY,12,3.189,44.63778119193802,-87.85833045921311
1670,Petro Stopping Center #54,"I-44, EXIT 4 & SR-3",Joplin,MO,277,3.449,37.74450522451793,-100.9009977268527
1671,LOVES TRAVEL STOP #412,"I-95, EXIT 77",Dunn,NC,205,3.699,34.84434709411869,-72.15926647045612
1672,HANA TRAVEL PLAZA,"I-40,  EXIT 77",Amarillo,TX,585,2.899,41.92779292153055,-103.50125523548618
1699,ALLENS FOOD MART280,US-280/US-231/SR-53/SR-38 & CR-8/CR-34,Sylacauga,AL,615,3.799,34.062483768931116,-71.89070452541
1700,TOPPS FUEL STOPS,US-259/SR-49,Daingerfield,TX,723,3.109,36.58457131058454,-74.92570744496254
1720,TOOT N TOTUM #120,US-54 & S WESTERN AVE,Liberal,KS,585,3.01566666,31.17684572013399,-106.48083823446719
1749,HIGHWAY 96 FUEL STOP,US-96 & SR-62/FM-1004,Buna                                    ,TX,610,3.149,30.380261151231863,-79.82291115867861
1753,PWI #169,"I-35/US-77, EXIT 359 & CR-1304",Abbott,TX,765,2.899,44.43972622016888,-70.2197899098247
1773,M-46 AUTO TRUCK PLAZA,"US-131, EXIT 120 & SR-46",Howard City,MI,344,3.199,42.53970180768309,-107.36684989143589
1773,M-46 AUTO TRUCK PLAZA,"US-131, EXIT 120 & SR-46",Howard City,MI,344,3.599,40.43961309140547,-98.16114153383401
1773,M-46 AUTO TRUCK PLAZA,"US-131, EXIT 120 & SR-46",Howard City,MI,344,3.099,36.13429416621405,-93.99096317166202
1791,PILOT TRAVEL CENTERS #257,"I-20, EXIT 126 & FM-1788",Midland                                 ,TX,710,3.56566666,32.599414801062686,-105.25344320980679
1807,LOVES TRAVEL STOP #229,I-40 EXIT 96 & SR-207,Panhandle,TX,585,3.314,32.34655564006629,-119.2367580176985
1810,KENT KWIK #804,US-83,Perryton,TX,585,2.999,33.75364347246893,-108.99353779012367
1829,PILOT TRAVEL CENTERS #96,"SR- 60 & FL TURNPIKE, EXIT 193",Okeechobee,FL,143,3.719,38.23839997059181,-105.90315578291208
1829,PILOT TRAVEL CENTER #96,"SR- 60 & FL TURNPIKE, EXIT 193",Okeechobee,FL,143,3.699,40.71893884050093,-97.82001493409064
1832,CORNER FUEL CENTER,US-49,Hattiesburg,MS,620,3.299,39.90296065076597,-111.4448760793299
1834,PUMP N PANTRY #15,"I-20, EXIT 617 & US-59",Marshall,TX,766,2.899,34.19900845418914,-76.33728216541637
1849,Stripes #42457,US-67/US-277,San Angelo,TX,740,3.244,44.32297920994791,-84.7544433634332
1855,EXIT 76 AUTO TRUCK PLAZA,US-131,Byron Center,MI,344,3.499,41.068453750436525,-115.7399761220169
1858,FLYING J TRAVEL PLAZA #737,"I-10, EXIT 583",San Antonio                             ,TX,740,3.224,38.31531078767101,-87.49537744300343
1859,GO MART FOOD STORE #44,"I-79, EXIT 67 & US-19/SR-4",Sutton,WV,44,3.559,39.17581119351529,-87.31717617971898
1860,MR FUEL #278,"I-75/71, EXIT 175 & SR-338",Walton,KY,300,3.019,36.29400093641685,-72.18894131781862
1861,PETRO STOPPING CENTER #315,"I-40, EXIT 66",Kingman,AZ,910,3.899,33.715964842517366,-119.84895643219194
1866,PRI MART FUEL CENTER,"I-94, EXIT 29",Benton Harbor                           ,MI,465,3.799,35.339590179768926,-107.60337750970965
1866,PRI MART FUEL CENTER,"I-94, EXIT 29",Benton Harbor                           ,MI,465,3.499,41.36769165696553,-73.61042603123423
1873,JDS TRUCKSTOP,"US-12 & US-31, EXIT 3",Niles,MI,465,3.749,30.215902329446337,-73.39330423008585
1873,JDS TRUCKSTOP,"US-12 & US-31, EXIT 3",Niles,MI,465,3.849,31.741089607603744,-83.97067903146814
1874,CIRCLE K #2744529,US-175,Seagoville,TX,630,2.95066666,30.69003963032629,-81.711833947623
1879,HOLIDAY STATIONSTORE #3552,"I-35, EXIT 81 & SR-70",Lakeville,MN,448,3.549,30.61093203478455,-115.42585210351764
1888,STRIPES 7FLEET #42449,US-87,Sterling City,TX,710,3.28066666,42.831908760165106,-94.30620826108832
1889,TOOT N TOTUM #105,US-54 & US-287,Stratford,TX,585,2.96566666,40.55486789070036,-108.42085043555002
1893,MIKE MCDONALD TRUCK STOP,"I-20, EXIT 509",Terrell                                 ,TX,637,2.87066666,37.11260743630988,-110.93909781931913
1894,CIRCLE K #2741544,"I-37 & SR-72, EXIT 69",Three Rivers,TX,747,3.06566666,31.46751240976502,-79.48483504383337
1897,YESWAY #1077,"I-20/US-84, EXIT 278",Tye,TX,575,2.87566666,37.37423812675249,-113.24809316597263
1905,LUCKY TRUCK STOP,US-82,Whitesboro                              ,TX,630,2.88566666,37.102076561708486,-96.56741815018074
1909,RALLYSTOP #1,"I-15, EXIT 62",Cedar City,UT,791,3.459,32.59802804865023,-73.07108802069834
1914,LOVES TRAVEL STOP #792,"I-70, EXIT 160",Green River,UT,835,3.709,36.507774738569594,-110.70839722173287
1921,BELL TRUCK STOP,"I-80, EXIT 146",Park City,UT,835,3.45233333,35.9775710159606,-71.10032881308827
1923,SCENIC QUIK STOP,"I-70, EXIT 54 & US-89",Salina,UT,835,3.459,39.237751470783245,-70.28560071194704
1930,CASEYS #3058,"I-35, EXIT 19 & US-160 E",Wellington,KS,570,3.299,39.526404763014654,-92.21914226587985
1931,RBS ONE STOP,"I-15, EXIT 320",Woods Cross                             ,UT,835,3.459,30.679560146580666,-111.4928629911421
1934,CIRCLE K #2723710,"I-77, EXIT 24",Austinville,VA,185,3.24066666,35.61918921939707,-104.19475560295521
1936,QUICK STOP MARKET #36,"I-81, EXIT 10 & US-11",Bristol,VA,185,3.399,39.38789873571355,-98.77535836617324
1940,7-ELEVEN #40063,"I-81, EXIT 98 & SR-100",Dublin,VA,65,3.199,37.54704387870132,-104.53378878208885
1944,LOVES TRAVEL STOPS #399,"I-77, EXIT 1 & SR-620",Lambsburg,VA,65,3.589,42.84734761782484,-105.96822100617422
1944,LOVES TRAVEL STOP #399,"I-77, EXIT 1 & SR-620",Lambsburg,VA,65,3.589,39.88040447428418,-71.38851453918213
1950,7-ELEVEN #34515,"I-81, EXIT 205",King George,VA,180,3.399,32.444016406221444,-112.33175862921271
1951,CIRCLE K #2723713,"I-81, EXIT 205",Staunton,VA,185,3.38566666,31.058531211006446,-83.33360456415689
1953,FAS MART #3555,"I-64, EXIT 136 & US-15",Gordonsville,VA,180,3.699,39.63628917309474,-119.97948552804125
1954,Joe's Kwik Mart #8409,US-58 & CR-645,Suffolk,VA,130,3.03233333,30.39766965812433,-90.19086652988116
1956,PILOT TRAVEL CENTER #4642,"I-81, EXIT 291",Toms Brook,VA,60,3.659,38.78663371910195,-74.20284980229738
1958,SPEEDWAY #4618,"I-81 & I-77, EXIT 77",Wytheville,VA,185,3.41233333,44.10345362137436,-105.60329529533905
1960,MAPLEWOOD IRVING,"I-89, EXIT 7",Montpelier                              ,VT,170,3.699,38.632112668138184,-110.72370123711404
1962,SUPER QUIK,"I-64, EXIT 172 & SR-1/SR-7",Grayson,KY,255,3.799,35.82254889309783,-87.41601025607865
1976,One9 #963,"I-90, EXIT 276",Spokane                                 ,WA,970,3.989,39.6493232766353,-84.36992963508034
1976,One9 #963,"I-90, EXIT 276",Spokane                                 ,WA,970,3.959,36.87379335737275,-85.59847405240093
1977,GEE CEES TRUCK STOP,"I-5, EXIT 57",Toledo,WA,977,3.839,38.18425183973903,-104.0341559989313
1983,KWIK TRIP #427,"US-53, EXIT 110 & SR-40",Bloomer,WI,295,3.41566666,44.12197213164788,-107.38987989203346
1985,Camp Douglas BP,"I-90 & I-94, EXIT 55",Camp Douglas                            ,WI,420,3.154,35.79153956701161,-72.20406000189779
2000,RIVER CITY TRAVEL PLAZA,US-41,Marinette,WI,360,3.399,44.41785845735871,-73.83502458650352
2002,KWIK TRIP #222,US-53/US-2,Superior,WI,334,3.339,43.58025962934096,-97.13416950535898
2009,KWIK TRIP #139,"I-43, EXIT 120 & CR-V/CR-OK",Sheboygan,WI,444,3.29066666,32.93686702183945,-77.69030669228133
2020,BFS FOODS #72,"I-68, EXIT 23 & SR-26",Bruceton Mills,WV,165,3.499,31.040419513127482,-97.3838261182852
2021,GO MART FOOD STORE #59,"I-64, EXIT 15 & US-60",Huntington,WV,255,3.499,31.5116700206614,-98.78054909637447
2022,GO MART FOOD STORE #86,"I-79, EXIT 40 & SR-16",Ivydale                                 ,WV,44,3.599,30.273327384773246,-112.16185262003526
2029,HOMAX SERVICE,"I-25, EXIT 188",Mills                                   ,WY,790,3.169,31.416644411338925,-98.67969717540136
2030,GHOST TOWN FUEL STOP,US-26/US-20,Casper,WY,790,3.429,40.24510160124535,-93.12915307000965
2034,TA CHEYENNE TRAVEL CENTER,"I-80, EXIT 377 & SR-217/CR-140",Cheyenne,WY,795,3.699,31.067829726903433,-118.87478362856568
2040,Fast Stop Travel Centers #1133,"I-25, EXIT 126 & US-18/20",Douglas,WY,790,3.499,34.78463445440642,-97.79434974122968
2041,PINE BLUFFS SINCLAIR,"I-80, EXIT 401 & US-30",Pine Bluffs,WY,795,3.699,42.67312966454182,-80.93218908024
2044,One9 #1251,"I-80, EXIT 173",Wamsutter,WY,795,3.499,30.349079036037388,-85.9976971812865
2074,STRIPES #40522,"I-10, EXIT 550",San Antonio,TX,740,3.059,42.217027238834035,-88.24215055680325
2076,ALLSUPS CONVENIENCE STORE #2159,US-283 BUS/US-277 BUS & SR-422,Seymour,TX,770,3.299,34.227821621600995,-74.52222857813987
2078,ALLSUPS CONVENIENCE STORE #2366,US-84 & CR-3300,Slaton                                  ,TX,700,2.969,31.772472414324845,-119.0983995087385
2084,Main Street Market #112,"I-20, EXIT 73",Wickett,TX,710,2.879,40.45105748046226,-92.1476206903883
2087,LWS TRUCK STOP,SR-30,Logan,UT,835,3.42566666,39.43414270169826,-80.63255757951464
2088,FLYING J TRAVEL PLAZA #773,"I-70, EXIT 40",Richfield                               ,UT,835,3.699,43.1620802029058,-92.93323086493663
2089,FLYING J TRAVEL PLAZA #774,"I-84, EXIT 7",Snowville                               ,UT,835,3.749,41.02606565705828,-103.80522237098104
2115,KWIK TRIP #838,SR-23/SR-33,Reedsburg,WI,420,3.194,42.05221395577273,-113.18747174540111
2125,BIG D #44,"I-80, EXIT 311 & SR-130",Laramie,WY,795,3.249,34.230518588569595,-75.62184640919043
2144,Mountain View Truck Stop,US-15,Thurmont,MD,60,4.099,32.661593156695844,-96.46188038061985
2152,SPEEDWAY #4709,"I-90, EXIT 102",Fairmont,MN,425,3.299,41.25922127461288,-76.09424015071494
2167,PILOT TRAVEL CENTERS #134,"I-94, EXIT 171 (CR 75)",Saint Cloud,MN,451,3.28733333,42.10252108900896,-90.70739387834158
2182,PILOT TRAVEL CENTER #4649,"I-64 & I-81, EXIT 205",Raphine,VA,185,3.659,44.8575771300101,-86.29039416924996
2192,GO MART FOOD STORE #51,US-19/SR-129,Mount Nebo                              ,WV,44,3.599,36.1892651536714,-79.7869422810775
2194,A AND A TRUCKSTOP,US-35 & CR-41,Jackson,OH,315,3.799,35.580271286891744,-87.04222276999329
2196,Certified Oil #400410,I-76 EXIT 43,Ravenna,OH,249,3.31566666,41.646194411129954,-100.09725796605312
2204,NATURAL BRIDGE SHELL,US-278 & SR-5,Lynn,AL,615,3.68233333,35.11205310379527,-94.31833080356745
2209,Roadrunner #471,"I-40/US-65, EXIT 142 & SR-365",North Little Rock,AR,695,3.03233333,43.96135988405347,-79.847723766206
2219,PILOT TRAVEL CENTER #66,"I-85, EXIT 129",Braselton,GA,16,3.27233333,42.87619127764518,-101.31748518135079
2219,PILOT TRAVEL CENTERS #66,"I-85, EXIT 129",Braselton,GA,16,3.27233333,36.43491041062528,-100.59392716157515
2223,PO JOS GAS N GO,"I-16 SR-404, EXIT 116 & US-301/SR-73",Register,GA,195,3.23233333,41.26306601687246,-115.21549419709994
2227,SPEEDWAY #7448,SR-59,Naperville,IL,293,3.299,41.31814311127023,-74.27077823891261
2227,SPEEDWAY #7448,SR-59,Naperville,IL,293,3.359,31.54685803253899,-115.44818425272791
2231,QUIKTRIP #605,"I-270, EXIT 33",Saint Louis,MO,540,2.899,43.5382936001935,-87.5895411275722
2255,S&G #36,"I-280, EXIT 2 & SR-795",Millbury,OH,550,3.49233333,37.578785586717856,-99.34027605986012
2267,Circle K #4703917,"I-65, EXIT 112 & SR-25",Cross Plains,TN,460,2.949,42.39686199161612,-99.71903048722788
2283,CIRCLE K #2707321,SR-60,Bartow,FL,225,3.52233333,34.80074401545917,-86.02240817136581
2287,SAC SHOP #511,"I-76/I-70, EXIT 146 & I-99/US-220 EXIT 1",Bedford,PA,14,4.099,43.432848427443005,-116.64531336850607
2306,SCOTCHMAN #3894,"I-77, EXIT 73 & SR-901",Rock Hill,SC,210,3.079,35.83802518101245,-90.31471085242828
2310,MAPCO #3686,"I-24, EXIT 175",Chattanooga,TN,285,2.889,30.162564772204476,-81.39841070138226
2311,SHELL,"I-24 & EPPS MILL RD, EXIT 89",Christiana                              ,TN,460,3.13233333,43.58072964628896,-78.58936210567029
2331,PINNERS POINT,SR-135,Portsmouth,VA,130,3.499,31.369300151792004,-111.47348053031124
2336,FLYING J TRAVEL PLAZA #754,"I-77 & I-81, EXIT 77",Wytheville,VA,185,3.549,34.78970456385622,-75.12904749609132
2340,RSTORE #4478,SR-8 & SR-13,Prentice,WI,395,3.039,44.25092950576207,-87.1926954076279
2557,PWI #106,"I-30, EXIT 77B",Royse City,TX,630,2.899,44.25910720406334,-75.90725995896585
2602,PILOT TRAVEL CENTERS #9,"I-75, EXIT 36",Franklin,OH,407,3.35233333,38.60156832184929,-95.73596414449008
2623,TA JANESVILLE TRAVEL CENTER,"I-90/I-39, EXIT 171B & US-14",Janesville,WI,420,3.299,39.477558182546986,-92.8983327451399
2626,WEST END SINCLAIR,"I-80, EXIT 211",Rawlins,WY,838,3.319,36.7266828296748,-74.04808614856644
2629,PILOT TRAVEL CENTERS #253,"I-295 & NJ TRNPK,  EXIT 2B",Penns Grove,NJ,243,3.989,34.398161575470965,-75.00452283226642
2635,FLYING J #584,"I-5, EXIT 278",Aurora,OR,935,3.859,34.92996818054874,-97.5919563315499
2638,PIT STOP TRAVEL CENTER,US-789,Riverton                                ,WY,790,4.399,40.08777684115557,-106.27936841821591
2640,LITTLE NASHVILLE,"I-64, EXIT 50 & SR-127",Nashville,IL,540,3.399,41.2856179415652,-100.3414782717868
2640,LITTLE NASHVILLE,"I-64, EXIT 50 & SR-127",Nashville,IL,540,3.299,41.873685655887726,-100.61178357351251
2644,FREDERICKS TRAVEL CENTER,"I-25/US-87, EXIT 235 & SR-52",Erie,CO,800,3.499,41.84427214191831,-105.65665625086031
2756,PAR MAR FOOD STORE #89,"I-77/SR-2, EXIT 170 & SR-14 E",Mineral Wells,WV,430,3.499,31.368091545730355,-106.57101978335167
2761,PONY EXPRESS SERVICE CENTER,US-36 & SR-148,Hanover,KS,316,2.95566666,37.41630457053872,-76.94685317601403
2764,LOVES TRAVEL STOP #046,US-64/54 & SR-94,Hooker,OK,585,3.56233333,30.863381400249665,-116.50690396576691
2765,LOVES TRAVEL STOP #023,US-50 & US-287,Lamar,CO,525,3.46233333,38.24293323485603,-86.11944089502029
2772,PILOT TRAVEL CENTERS #29,"I- 80, EXIT 144; I-69, EXIT 357",Fremont                                 ,IN,465,3.899,36.62295752060066,-111.35899742717739
2772,PILOT TRAVEL CENTER #29,"I- 80, EXIT 144; I-69, EXIT 357",Fremont                                 ,IN,465,3.899,43.31556274137449,-102.77470533029684
2779,Stinker #121,I-84 & EXIT 208,Heyburn,ID,787,3.56066666,35.26372518828118,-116.92284829325816
2788,JIFFY MART #451,"I-91, EXIT 17 & SR-302",Wells River,VT,39,3.569,31.756005246414087,-106.5013181572269
2805,Fast Stop Travel Centers #1145,"I-15,  EXIT 31",Downey,ID,825,3.799,32.144875230792536,-81.5789464441379
2807,SUDDEN SERVICE #25,"I-24, EXIT 11",Clarksville,TN,460,3.30733333,41.42265947576208,-75.74923377263707
2811,KWIK FILL #22,"I-90, EXIT 40 & SR-34/SR-31",Weedsport,NY,220,3.899,39.27327094974392,-108.92364240488165
2817,Chevron #382354,"I-5/US-12, EXIT 72",Chehalis,WA,977,4.299,31.516840141841854,-96.82260803705391
2848,TA TONOPAH TRAVEL CENTER,"I-10, EXIT 103",Tonopah,AZ,930,3.939,31.26160209172496,-96.48379760313968
2851,SPEEDWAY #2958,"I-8, EXIT 12",Yuma,AZ,900,3.479,40.5145369718868,-76.3212347120133
2862,TA TALLULAH TRAVEL CENTER,"I-20, EXIT 171 & US-65",Tallulah,LA,760,3.209,31.091445095462902,-81.86004735620972
2864,KUM & GO #0493,I-49 BUS/SR-59,Neosho,MO,535,3.059,42.32790088935534,-94.3461390815975
2875,CIRCLE K #2744138,"I-25, EXIT 101 & US-50/SR-47",Pueblo,CO,803,3.399,40.59363340734744,-86.46263997641134
2883,PILOT TRAVEL CENTER #293,"I-75, EXIT 341 & CR-484",Ocala                                   ,FL,140,3.41233333,31.220231709628496,-77.63224730453166
2883,PILOT TRAVEL CENTERS #293,"I-75, EXIT 341 & CR-484",Ocala                                   ,FL,140,3.359,31.272565711277878,-119.52305229872275
2885,SP Truckstop & Travel Center,US-84/SR-38,Bainbridge,GA,20,3.599,44.799593677517635,-99.85549844749757
2889,MOULTON COWBOYS,SR-157,Moulton                                 ,AL,615,3.099,35.614061936341805,-74.63784163614606
2891,PETRO STOPPING CENTER #338,"I-80, EXIT 21",Sparks,NV,966,3.949,35.559632206003364,-82.98434845780244
2895,EAGLE TRUCK STOP,I-77 EXIT 81,New Philadelphia,OH,249,3.31566666,42.19199350886254,-92.85793128329627
2896,NORTH LEWISTON DYNAMART,US-12 & SR 128,Lewiston,ID,970,3.669,44.208728660757885,-93.51777364824332
2897,GAS N GO #15,"I-80, EXIT 41",Lyman,WY,827,3.46566666,44.790015957343066,-102.61149511977811
2910,FLYING J TRAVEL PLAZA #685,"I-29 & I- 94, EXIT 349",Fargo                                   ,ND,341,3.569,41.30067277888412,-93.97397331792428
2913,ONE9#226,"I-40, EXIT 417 & SR-92",Dandridge,TN,405,3.259,35.64389378296374,-87.23084002682734
2915,TP TRUCK STOP,"I-15, EXIT 80",Fort Hall                               ,ID,825,3.519,31.25251075048003,-99.08184807856034
2917,GOLDYS TRUCK PLAZA,US-29,Rustburg,VA,185,3.519,41.65720373891155,-84.2923426803913
2922,LOVES TRAVEL STOP #210,"I-40, EXIT 158",Albuquerque,NM,580,3.52066666,38.376063746037076,-76.9383886369807
2923,LOVES TRAVEL STOP #435,"I-95, EXIT 104 & SR-207",Ruther Glen,VA,180,3.611,36.36333013870465,-112.26575759075695
2923,LOVES TRAVEL STOPS #435,"I-95, EXIT 104 & SR-207",Ruther Glen,VA,180,3.589,43.59531577642104,-97.42264885912877
2924,HWY 190 FUEL STOP,US-190,Jasper                                  ,TX,610,3.13233333,31.66796223459227,-99.59899543574595
2926,EXIT 77 TRAVEL PLAZA,"I-81, EXIT 77 & SR-39",Harrisburg,PA,70,3.499,37.38937656436289,-85.62675979751359
2929,TA EXPRESS STEELE,"I-94, EXIT 200 & SR- 3",Steele,ND,390,3.599,30.170304671511285,-107.50662673710353
2935,CIRCLE K #2726163,"I-295, EXIT 22",Jacksonville,FL,75,3.299,37.02990962991189,-87.98745425238619
2937,FLYING J TRAVEL PLAZA #664,"I-75, EXIT 171",Walton,KY,300,3.08566666,30.84454913522756,-76.1255379134256
2956,PILOT TRAVEL CENTERS #275,"I-85, EXIT 39 I-77, EXIT 13",Charlotte,NC,46,3.55233333,31.782268744021078,-99.09342001031887
2963,SUPERPUMPER #26,"I-94, EXIT 258 & US-281",Jamestown,ND,390,3.629,31.762893701656573,-74.449215001039
2967,PETRO STOPPING CENTER #317,"I-57, EXIT 71",Perrysburg,OH,550,3.78566666,39.73815453174095,-70.34181305332608
2968,E-Z MART #4460,"I-20,  EXIT 124",Monroe,LA,719,3.129,41.19067318898135,-114.69539750260239
2977,DISCOUNT FUEL,"I-90, EXIT 150 & SR-73",Kadoka,SD,506,3.229,38.7505314764574,-108.34734060075706
2982,CIRCLE K #2723726,"I-59/I-20, EXIT 52 & US-11/US-43/SR-7",Knoxville,AL,705,3.089,44.43258822711813,-72.48101242589534
3003,CHEVRON,"I-20, EXIT 186",Delta                                   ,LA,760,2.994,35.62305869285556,-72.08361567593066
3008,BUSY BEE,"I-10, EXIT 283 & US-129",Live Oak,FL,10,3.779,34.28568129422791,-115.11463623066207
3022,TA GREENCASTLE TRAVEL CENTER,"I-81, EXIT 5",Greencastle,PA,70,3.959,43.0289869228419,-119.25007498114317
3030,Mr Ts Riverside,US-412,Cardwell                                ,MO,435,3.199,33.35393757779179,-111.94499883717889
3064,PORTS TO PLAINS TRAVEL PLAZA,US-50 & US-287,Lamar,CO,800,3.399,44.44833809160917,-70.19936083088758
3086,SPEEDWAY #4638,US-29,Madison Heights,VA,185,3.49566666,30.182317120347246,-111.00001916946566
3093,RSTORE #4488,US-51,Merrill,WI,395,3.24066666,44.548182400614586,-94.87261966389885
3096,HOBO PANTRY #6,US-431/SR-210,Dothan,AL,20,3.959,30.647398679258643,-77.57911367847444
3118,MOBIL,"I-87, EXIT 42 & US-11",Champlain,NY,39,3.799,43.367146705471065,-118.97991946558969
3128,TA ATLANTA SOUTH TRAVEL CENTER,"I-75, EXIT 201 & SR-36",Jackson,GA,18,3.334,37.9155166362945,-89.77555088707703
3138,TA EXPRESS #6264,"I-70, EXIT 26 & US-50",Grand Junction,CO,800,4.049,44.894471941789504,-106.14872755651878
3139,CHEROKEE TRAVEL MART,"I-40,  EXIT 108",Calumet                                 ,OK,483,3.10566666,31.106948471030982,-76.88325417801343
3148,YESWAY #1038,US-60 & SR-86,Neosho,MO,307,3.059,38.30781426601981,-105.82694253679604
3155,QUIK MART #18,US-72/SR-157,Tuscumbia                               ,AL,615,3.00733333,44.53953803428649,-85.66221398590456
3163,QUIKTRIP #71,"I-44, EXIT 238",Tulsa,OK,560,3.039,37.84646766255223,-86.28901837763016
3164,QUIKTRIP #102,"I-44, EXIT 222A",Tulsa,OK,560,3.039,39.44097957202894,-108.925322557018
3165,LOVES TRAVEL STOP #213,"I-35, EXIT 211",Tonkawa,OK,500,3.584,40.436230334769256,-118.2600400065825
3167,JASPER FOOD MART,US-78,Jasper,AL,615,3.229,36.8181159715166,-99.53752131073014
3171,One9 #265,"I-40, EXIT 287 & SR-136",Cookeville,TN,405,3.084,39.41337120126095,-105.54034240170651
3176,BP,US-6 & SR-15,New Paris                               ,IN,365,3.65733333,38.7647146788465,-79.55111251931457
3178,ERNIES FUEL STOP #1605,SR-167,Kent,WA,977,4.599,43.51737015736484,-79.98179057723274
3179,MR FUEL #1020,"I-80 & I-94, EXIT 15B",Lake Station,IN,365,3.56566666,30.681695705121868,-97.14880239036873
3191,BUSY CORNER TRUCK STOP AND MARKET,"I-24, EXIT 105 & US-41/SR-2",Manchester,TN,460,3.049,34.214447843883455,-89.67438873383905
3205,CROSSROADS TRUCK STOP STATION,"I-29 & SR 34, MM 109",Colman                                  ,SD,530,3.159,44.25617226114838,-89.78702420065375
3206,PERHAM OASIS,US-10 & SR-78,Perham,MN,250,3.499,43.35395675836374,-78.64209257861883
3215,SHELL TRUCKSTOP,"I-4, EXIT 44",Polk City,FL,225,3.449,36.8348512917857,-98.74987929384012
3216,MAXS #124,"I-24, EXIT 86 & US-41",Oak Grove,KY,460,3.04233333,39.30198896702305,-106.22766601047455
3221,Pilot #1440,"US-67, EXIT 55 & US-64/US-167 & SR-367",Bald Knob,AR,695,3.399,34.16071774471699,-106.74825409297263
3221,Southern Travel Plaza,"US-67, EXIT 55 & US-64/US-167 & SR-367",Bald Knob,AR,695,3.391,32.82181739585642,-93.19038603588979
3222,POMPANO TRUCK STOP,"I-95, EXIT 36B",Pompano Beach,FL,95,3.759,36.955476074099735,-97.54258986338937
3226,ONE9 #245,"I-81, EXIT 77 & SR-39",Harrisburg,PA,70,3.609,35.30028342039079,-97.99396145075319
3227,ONE9 MR FUEL #64,"I-26 & US-17, EXIT 199",Summerville,SC,42,3.219,38.75484167776308,-115.44313304551464
3227,MR FUEL DBA ONE9 #64,"I-26 & US-17, EXIT 199",Summerville,SC,42,3.219,31.166019554474772,-84.06981296549023
3230,STRIPES #40815,US-281 & US-285,Falfurrias,TX,625,3.299,44.6159221149925,-109.31316560090447
3264,TA WEST MEMPHIS TRAVEL CENTER,"I-40/US-63, EXIT 260 & SR-149",Earle,AR,435,3.36733333,44.79316116719404,-110.15231848956392
3280,OUTPOST TRUCK STOP,US-85 & US-18/US-20,Lusk,WY,790,3.689,40.47242571029618,-99.36208398613033
3281,AMERICAN TRUCK PLAZA,I-80 EXIT 215 & SR-254,Milton,PA,138,3.799,38.04144549516181,-108.61108291910993
3284,CASEYS #4390,"I-49/US-71, EXIT 77 & US-160",Lamar,MO,416,3.199,34.642914244294914,-90.80708663459923
3297,SAPP BROS TRAVEL CENTER,"I-80, EXIT 370",Cheyenne,WY,795,3.70066666,42.20692529560423,-101.42683303327642
3316,TRUCKOMAT OF N LITTLE ROCK,"I-40, EXIT 161 & SR-391",North Little Rock                       ,AR,695,3.249,40.27096758830819,-97.55441387036049
3326,MIRABITO #61,"I-81, EXIT 32",Central Square,NY,12,4.299,32.43925409017337,-93.14153391979856
3330,TA # 211 GREENLAND TRAVEL CENTER,"I-95, EXIT 3A & US-101",Greenland,NH,34,3.759,43.663907767407636,-109.82322387590976
3349,QUEEN CITY TRUCK STOP,"I-20 & I-59, EXIT150",Meridian,MS,705,2.939,42.33805864384753,-112.21241885672352
3383,E-Express at Central Truck Stop,"I-35, EXIT 137",Oklahoma City,OK,483,2.879,44.246998699378864,-75.97890485631976
3386,LONGMONT TRUCK STOP,"I-25/US-87, EXIT 240 & SR-119",Longmont,CO,800,3.239,40.8857926258254,-98.31381485842894
3401,POPS Mart #333,"I-77, EXIT 48 & SR-200",Winnsboro,SC,46,3.09066666,39.20122793903685,-99.39531951837304
3413,COUNTRY GIRL TRUCK STOP,US-167 & SR-156,Winnfield,LA,590,3.319,36.27364554435928,-118.21939248635793
3415,JAYS EL CHEAPO FUEL STOP,"I-16, EXIT 104",Metter                                  ,GA,195,3.249,43.9909272503102,-95.10118487063033
3418,Par Mar Store #164,"I-79, EXIT 105 & CR-7",Jane Lew,WV,165,3.999,42.990958342506126,-92.29151391945
3421,ERNIES TRUCK STOP,"I-5, EXIT 142",Federal Way,WA,977,4.599,30.678280051592843,-92.05795645226668
3422,PWI #167,"I-10, EXIT 601",Seguin,TX,740,2.889,30.39550461745878,-84.64844153385579
3427,JOHNNYS MARKET,"I-69, EXIT 357",Fremont,IN,465,3.699,35.64695050317074,-111.12590825044941
3432,PILOT TRAVEL CENTER #34,"I-65, EXIT 201 & US-231",Remington,IN,365,3.709,42.158299961727494,-107.38884328846906
3432,PILOT TRAVEL CENTERS #34,"I-65, EXIT 201 & US-231",Remington,IN,365,3.659,44.80914193972417,-79.46347673847936
3435,PWI #168,"I-35, EXIT 266 & SR-195",Georgetown,TX,740,2.799,32.256253366552926,-72.6414691578303
3444,Acme Truck Stop,US-441/SR-500,Orlando,FL,140,3.449,38.911960730282026,-113.20336263163396
3460,CHROME TRUCK STOP,US-18 & US-169,Algona,IA,433,3.499,35.71336284946533,-95.11752227473909
3464,BOISE PETROLEUM LLC,"I-84,  EXIT 71",Boise,ID,785,3.379,44.548715967219046,-109.29118736302065
3471,MR FUEL DBA ONE9 #72,"I-16, EXIT 160",Savannah,GA,195,3.13233333,42.63178384703563,-116.99634158225088
3471,ONE9 MR FUEL #72,"I-16, EXIT 160",Savannah,GA,195,3.119,42.574930570667064,-103.72483309369323
3475,PILOT TRAVEL CENTERS #56,"I-85, EXIT 63",Kannapolis,NC,46,3.499,37.030397396924556,-112.81561874078936
3477,CIRCLE K #4707404,"I-91, EXIT 7",Springfield,VT,170,3.699,36.22229253506498,-84.50334632828768
3479,FAST MARKET #4550,"I-75/SR-401, EXIT 136 & US-341",Perry,GA,85,3.099,34.10110607896059,-93.31372931642778
3493,CIRCLE K #2723675,"I-75, EXIT 290 & SR-20",Cartersville,GA,18,3.08566666,30.845632449763908,-112.80827645048446
3519,PILOT TRAVEL CENTERS #431,"I-10, EXIT 873",Orange,TX,610,3.309,42.9708356438258,-119.53792057972429
3522,SUNMART #308,US-59,Livingston                              ,TX,610,2.859,42.19351513695116,-79.59214754878937
3526,JOE STOP 99,"I-75, EXIT 99 & SR-119",Anna,OH,411,3.064,44.99576509929196,-111.19027969178762
3530,SPARKYS ONE STOP #22,"I-35, EXIT 111B & US-30",Jefferson,IA,320,3.23233333,44.94955255610858,-89.6891678889617
3536,PETRO STOPPING CENTER #307,I-40 EAST & S LAKESIDE Dr,Amarillo,TX,585,3.279,38.33147558403941,-103.15390434616272
3539,Bigs 211,"I-10, EXIT 620 & SR-123",Seguin,TX,740,3.099,41.53481122770766,-90.72570308424822
3545,STOCKMENS TRUCK PLAZA,"I-494, EXIT 64A",South Saint Paul,MN,450,3.499,44.17148594823642,-104.2173186508838
3580,STINKER I 80 TRAVEL PLAZA,"I-80, EXIT 221 & SR-76",Sinclair,WY,838,3.759,42.74471086016117,-115.6530219653873
3585,CHEVRON,"I-80, EXIT 129",Lovelock,NV,966,3.499,33.71022152614796,-108.85249957211232
3588,BINGO TRUCK STOP,"I-10, EXIT 829 & SR-124",Winnie                                  ,TX,610,2.999,36.7581620296514,-110.59707167604623
3592,TA BRIDGER TRAVEL CENTER #188,"I-80, EXIT 30 & CR-202",Fort Bridger,WY,835,3.71566666,31.937391227272425,-98.59903237801781
3593,TA Parowan Travel Center,"I-15, EXIT 78",Parowan,UT,910,3.70566666,44.31076540888083,-87.08581082869213
3605,SPEEDYS #6,"I-35, EXIT 33",Saint Joseph,MO,400,3.169,39.0926195167632,-106.80969625268213
3608,FUEL MART #787,"I-57, EXIT 212 & US-36",Tuscola,IL,280,3.199,33.42964208255194,-119.3965032349691
3614,PILOT TRAVEL CENTERS #35,"I-80/90, EXIT 72 & US-31",South Bend                              ,IN,465,3.799,40.07551026608785,-94.05313178676215
3614,PILOT TRAVEL CENTER #35,"I-80/90, EXIT 72 & US-31",South Bend                              ,IN,465,3.799,39.27192360686844,-89.7120255320514
3616,PILOT TRAVEL CENTERS #15,"I-75, EXIT 210",Toledo,OH,550,3.77233333,35.37244077049261,-71.85647529990952
3619,ROAD RANGER #141,"I-70, EXIT 23",Brazil,IN,375,3.659,31.703363882994434,-90.52645984533765
3620,One9 #16,"I-71 & US-68, EXIT 50",Wilmington                              ,OH,315,3.14233333,40.073597933891996,-96.44137203109291
3645,SNOW SHOE TRAVEL PLAZA,"I-80, EXIT 147 & SR-144",Snow Shoe,PA,14,3.469,37.8046155135569,-91.3299187051148
3678,TIMES MARKET #299,US-281 BUS,Alice,TX,625,3.099,41.58477587603459,-73.60496850689864
3688,SPEEDWAY #2314,"I-94, EXIT 243 & SR-29",New Baltimore,MI,342,3.559,37.8024525166799,-78.58109271991768
3688,SPEEDWAY #2314,"I-94, EXIT 243 & SR-29",New Baltimore,MI,342,3.579,42.7827225047781,-103.8510633318096
3692,CHARLOTTE TRAVEL PLAZA,"I-77,  EXIT 16B",Charlotte,NC,46,3.53233333,38.278602581617285,-108.13728181714313
3699,WARREN TRAVEL PLAZA,"I-69, EXIT 278 & SR-5",Warren,IN,375,3.399,38.414069573030794,-106.86831938169632
3702,BEARS DEN TRADING POST #101,ST 37 11 MI E OF MASSENA,Hogansburg                              ,NY,39,3.649,43.14980403987518,-94.77894801423935
3707,SPEEDWAY #4704,"I-90, EXIT 154",Albert Lea,MN,425,3.299,36.052242993185956,-82.79752743857111
3718,SPEEDWAY #4706,"I-90, EXIT 265",Chamberlain,SD,455,3.299,32.01022842675961,-94.8390396408519
3719,KEYSTONE TRUCK STOP,US-22 & SR-164,Loretto,PA,14,3.999,30.431740144700086,-116.61018020859437
3725,GENEVA TRUCK STOP,"I-79, EXIT 35/141",Cochranton                              ,PA,240,3.81566666,41.32705883510428,-83.82096497800094
3728,PLAZA 23 TRUCK STOP,"I-787, EXIT 2",Albany,NY,12,3.799,39.304643270301966,-79.70149356645231
3737,JORDAN'S KWIK STOP #70,US-49,West Helena                             ,AR,435,3.399,40.561196521488355,-105.52510674401401
3745,PILOT TRAVEL CENTER #906-TOWN PUMP,"I-90, EXIT 408 & SR-78",Columbus,MT,780,3.58066666,33.19446242263366,-86.79371303583248
3759,EXXON,US-67 & SR-18,Newport,AR,695,4.13233333,32.04557213380155,-98.67040494728033
3767,SIMMONS TRAVEL CENTER,"I-95, EXIT 8 & US-301",Emporia,VA,180,3.099,30.21816998501823,-75.54403221362786
3772,Brake Time Corner Market,"I-25, EXIT 240",Burlington                              ,CO,800,3.499,35.25881338209896,-77.73872209196301
3774,SINCLAIR,"I-70, EXIT 438",Burlington                              ,CO,796,3.889,38.848765302819494,-93.72840008451789
3781,REATTA TRAVEL STOP,"I-76, EXIT 149 & SR-55/CR-81",Crook,CO,475,3.38233333,35.883660676495985,-85.42472270932028
3783,CIRCLE K #2744095,"I-25, EXIT 215",Denver,CO,800,3.299,36.56212383035594,-75.83251494889481
3794,SPEEDWAY #4701,"I-90, EXIT 73",Jackson,MN,425,3.299,43.562380417406224,-95.21414949608622
3817,FAST MARKET,"I-25, EXIT 158",Colorado Springs,CO,803,3.159,35.22383200534951,-104.3374629755589
3843,ONCUE EXPRESS #61,"I-35, EXIT 185 & US-77",Perry,OK,500,3.21566666,37.70984233739716,-82.31669310452094
3868,SHORE STOP #279,US-13,Greenwood,DE,194,3.239,41.75479519111715,-108.99668726076541
3868,SHORE STOP #279,US-13,Greenwood,DE,194,3.259,35.94814173481905,-100.5734425996979
3888,Fics Plaza,"I-90, EXIT 184",Deer Lodge                              ,MT,816,3.519,39.331300503418106,-76.71363814466031
3889,CIRCLE K #2701686,"I-75, EXIT 220",Bradenton,FL,225,3.439,42.93545563120118,-83.77888298653426
3907,SUNOCO,US-46 & SR-93,Palisades Park,NJ,105,3.279,44.24280935486463,-99.80944973762504
3908,SEMINOLE TRUCK STOP,"I-75, EXIT 354",Fort Lauderdale,FL,95,3.699,32.206102213935566,-109.26277487958212
3927,MICCOSUKEE SERVICE PLAZA,"I-75, EXIT 49 & SR-84",Fort Lauderdale                         ,FL,95,3.66566666,43.89881437742242,-102.20158045838818
3936,Uncle Petes Truck  Stop,"I-40, EXIT 239 & US-70/SR-26",Lebanon,TN,460,2.989,37.38174439619307,-105.79479253862834
3946,Fast Lane,US-24 & US-63,Moberly,MO,310,3.469,33.87366582448438,-111.1955356028073
3949,SUNSTOP #337,"I-10/SR-8, EXIT 303 & US-441",Lake City,FL,75,3.699,36.88703634357392,-82.83335432171717
3956,CIRCLE K #2707451,US-27/SR-25 & SR-70,Lake Placid,FL,225,3.399,44.700488629282155,-107.39650565749142
3964,SPEEDWAY #6604,"I-94, EXIT 66",Mattawan,MI,465,3.489,37.38927140989304,-97.29162649161181
3964,SPEEDWAY #6604,"I-94, EXIT 66",Mattawan,MI,465,3.499,34.931274154312625,-100.70702765819455
3970,EXXON - Pilot #1293,"I-30, EXIT 61",Garland,TX,630,2.84233333,39.50101281475089,-70.89613106821847
3973,LOVES TRAVEL STOP #205,"I-35 & I-44, EXIT 137",Oklahoma City,OK,483,3.319,33.6021842816729,-100.44538779258897
3974,LOVES TRAVEL STOP #201,I-40 EXIT 41,Elk City,OK,483,3.12566666,31.13794992162996,-116.00087586016227
3975,SUNSTOP #334,"I-10, EXIT 335 & SR-121",Macclenny,FL,75,3.459,31.933195828659738,-115.5087123713958
3979,PETRO GARY 369,"I-80 & I-94, EXIT 9",Gary,IN,365,3.83066666,31.920687584366586,-90.46231393234676
4006,MISSILE MART #1,US-167 & SR-7,El Dorado,AR,635,3.499,32.27854040268441,-90.03182241308672
4008,BALDWIN TRAVEL PLAZA,"I-94, EXIT 19 & US HWY 63",Baldwin                                 ,WI,295,3.503,32.08240758974115,-99.06205047586725
4025,BP,"I-85, EXIT 21  & US-178",Anderson,SC,30,2.909,39.61312117204822,-98.40781538439852
4035,PILOT TRAVEL CENTER #430,"I-40,  EXIT 84",Russellville,AR,695,3.375,32.728201265987174,-117.30337085795644
4035,PILOT TRAVEL CENTERS #430,"I-40,  EXIT 84",Russellville,AR,695,3.399,35.18500924985795,-94.17267448053688
4062,DUDLEYS TRUCK STOP RESTAURANT,US-220,Rocky Mount,VA,185,3.299,43.45182614859018,-94.76302623098242
4063,STUCKEY'S,"I-59, EXIT 67 & US-49",Hattiesburg,MS,620,2.999,37.10942460394308,-112.52253407215278
4080,SHELL DBA PILOT DEALER #874,US-41,Miami,FL,176,3.699,40.013366077815405,-114.80803069445362
4080,PILOT TRAVEL CENTERS #874,US-41,Miami,FL,176,3.699,32.58479806802445,-113.82137547002547
4101,E-Z MART #4411,HIGHWAY 69 & COBBLESTONE DR,Pryor,OK,560,3.099,32.88433528213006,-114.94858767543707
4113,ASAP GENERAL STORE #330,US-412/SR-15,Enid,OK,500,3.08233333,30.613029243997183,-89.514590223162
4115,QUIKTRIP #707,"I-85 , EXIT 96",Atlanta,GA,18,3.34066666,32.534025946082465,-110.17586737985407
4119,JET FOOD STORE #82,US-441 & CR-13,Douglas,GA,10,3.44066666,34.17885508547938,-107.42849239062683
4156,PETRO STOPPING CENTER #305,"I-10, EXIT 582",San Antonio,TX,740,3.20733333,32.6551572641512,-111.32139279242801
4161,EL CHEAPO,I-95 & EXIT 76,Midway                                  ,GA,195,3.52566666,31.330538006355834,-72.10823477757485
4164,CIRCLE K #2723897,"I-75, EXIT 138",Thomasville,GA,20,3.23566666,31.809538066509013,-77.26912684240823
4169,TA KINGMAN TRAVEL CENTER,"I-40, EXIT 48 & US-93",Kingman,AZ,910,3.899,36.91168152049089,-108.47525813242396
4171,PETRO SERVE USA #11,US-2 & US-71,Bemidji,MN,355,3.499,33.095005776086886,-103.6216853038937
4172,FLYING J TRAVEL PLAZA #639,"I-90, EXIT 2",Post Falls,ID,970,3.76233333,35.46404791572113,-109.50535788475014
4179,CIRCLE K #2705352,"I-95/SR-405, EXIT 109 & SR-30/SR-21",Port Wentworth                          ,GA,195,3.099,37.55125906282285,-95.40620202695881
4187,FLYING J TRAVEL PLAZA #632,"I-75, EXIT 320",Resaca,GA,285,3.29566666,40.35592242944048,-119.01947337628732
4193,TIGER MART #63,"I-20, EXIT 454",Grand Prairie,TX,630,3.599,30.589682097616485,-86.4315995551602
4199,PWI #574,"I-70, EXIT 193/US-40",Bunker Hill,KS,357,2.959,41.991155983635636,-93.84209250911792
4204,PILOT TRAVEL CENTERS #415,"I-59, EXIT 4",Rising Fawn,GA,285,3.859,39.418505842363615,-75.06805358494483
4204,PILOT TRAVEL CENTER #415,"I-59, EXIT 4",Rising Fawn,GA,285,3.819,31.22638547923308,-111.7803657835793
4211,FLYING J #513,"I-15, EXIT 1",Jean,NV,910,3.73233333,43.10367936160166,-79.79453769694342
4220,KENNETT TRUCK STOP,"I-275, EXIT 16",Lawrenceburg                            ,IN,300,3.424,43.8130860079772,-80.40194927666421
4222,Circle K #4703906,"I-24, EXIT 24 & SR-49",Pleasant View,TN,460,2.899,30.916169397822955,-113.64094053915565
4223,TA PEMBROKE TRAVEL CENTER,"I-90, EXIT 48A",Corfu,NY,38,3.939,34.153164722208054,-100.07203879279362
4223,TA PEMBROKE TRAVEL CENTER,"I-90, EXIT 48A",Corfu,NY,38,3.889,42.09301919689592,-111.49236794277415
4223,TA PEMBROKE TRAVEL CENTER,"I-90, EXIT 48A",Corfu,NY,38,3.829,41.22389535575488,-107.26397497712256
4223,TA PEMBROKE TRAVEL CENTER,"I-90, EXIT 48A",Corfu,NY,38,3.839,32.76781529034566,-106.83769125847279
4227,LOVES TRAVEL STOP #203,"I-40, EXIT 140",Oklahoma City,OK,483,3.35566666,33.140239850050655,-92.18818029871136
4233,QUIKTRIP #7220,"I-20, EXIT 8",Shreveport,LA,745,2.89233333,35.55708154187073,-99.42945341197672
4239,SPEEDWAY #8256,"I-64, EXIT 94 & SR-1958 & US-60",Winchester,KY,410,2.92233333,37.26784477786532,-72.61335979968473
4241,EXXON,"I-285, EXIT 53",Conley,GA,18,3.999,39.27382157295444,-113.68149290264975
4267,CONOCO,US-30 & SR-41,Gap,PA,160,3.799,35.53370459354659,-71.31539325749006
4292,KUM & GO #0032,"I-80/US-6, EXIT 155 & SR-117",Colfax,IA,320,3.08233333,36.93802074199722,-108.46806798928681
4301,TIGER DISCOUNT TRUCKSTOP,"I-94, EXIT 64 & I-94 BUS",Dickinson,ND,807,3.51566666,41.21206407200635,-81.35630318090735
4311,Saveway Truck Plaza,"I-65, EXIT 164 & US-31",Hope Hull,AL,720,3.139,30.55024804335897,-103.05150369135893
4331,KWIK STOP C STORES,US-61/US-151,Dubuque,IA,335,3.559,33.78655416516031,-112.84593022913431
4332,PILOT TRAVEL CENTER #468,"I-57, EXIT 283 & US-24",Gilman,IL,280,3.399,40.70024378826829,-77.105540737688
4332,PILOT TRAVEL CENTER #468,"I-57, EXIT 283 & US-24",Gilman,IL,280,3.559,43.42810256530799,-104.55695503817684
4332,PILOT TRAVEL CENTER #468,"I-57, EXIT 283 & US-24",Gilman,IL,280,3.439,37.675161631734994,-87.05722978865789
4332,PILOT TRAVEL CENTERS #468,"I-57, EXIT 283 & US-24",Gilman,IL,280,3.459,37.98170227897973,-91.67781574566867
4335,HIGHWAY 20  AUTO TRUCK PLAZA,US-20,Peosta,IA,335,3.489,31.60758017009664,-96.41218453045629
4339,ROAD RANGER #273,I-69E/US-77 & SR-107,Combes,TX,639,3.049,36.71118550235182,-95.20902636757305
4349,ROAD RANGER #144,"I-380, EXIT 68US-20, EXIT 68",Evansdale,IA,565,3.729,37.98925899682535,-83.38810429538563
4363,EL CHEAPO #4,"I-95, EXIT 87",Richmond Hill,GA,195,3.09566666,33.63705755452094,-115.61135429382797
4368,HOODS SERVICE CENTER,"I-44, EXIT 61",Bois D Arc,MO,535,3.074,34.038648464240715,-86.59096690210474
4372,GRADYS TRUCKSTOP,"I-16, EXIT 111",Pulaski                                 ,GA,195,3.46566666,35.65926244656934,-75.20939493007106
4373,KUM & GO #0043,"I-35, EXIT 43 & SR-207/CRG76",New Virginia,IA,320,3.114,30.301067966665897,-117.1105901490068
4389,TAYLOR QUIK-PIK,"I-29, EXIT 75 & US-30",Missouri Valley,IA,486,3.399,34.83118748374768,-112.96733303831667
4395,BREAK TIME #3147,"I-55, EXIT 67 & US-62",Sikeston,MO,275,3.499,33.17172010494817,-84.16840316489842
4417,TA MORIARITY TRAVEL CENTER,"I-40, EXIT 194",Moriarty,NM,580,3.21733333,34.91246028266872,-98.13591758776911
4419,CASEYS #3081,"I-35, EXIT 92 & US-136",Bethany,MO,400,3.06066666,31.79643197728877,-99.82256895931559
4427,CASEYS #2654,"I-80/US-6, EXIT 93 & CR-P28",Stuart,IA,320,3.099,43.35790921109842,-113.15166827278821
4431,CASEYS #2653,"US-63 & US-30, EXIT 202",Toledo,IA,320,3.349,38.903886803310726,-94.6614979641106
4437,UNDERWOOD TRUCK STOP I 80,"I-80, EXIT 17",Underwood                               ,IA,319,3.00066666,40.186534787167346,-113.67273444018113
4441,PILOT TRAVEL CENTERS #51,"I-81 BAILEYTON RD, EXIT 36",Greeneville,TN,405,3.56233333,41.837568579110076,-96.16897718447298
4442,Minuteman Food Mart #58,US-74/US-76,Delco,NC,245,3.50733333,37.47663298393586,-81.81923505191716
4445,TA Rogers,"I-94/US-52, EXIT 207 & SR-101",Rogers,MN,448,3.274,31.303804321311354,-107.08678210564182
4446,LOVES TRAVEL STOP #200,I-40 EXIT 74,Amarillo,TX,585,3.209,38.05659812727822,-95.96069159101364
4451,PRAIRIE JUNCTION TRUCK STOP,"I-29, EXIT 109 & SR-34",Colman,SD,530,3.099,38.802616770313186,-70.39920153015822
4452,CASEYS #2867,US-63 & US-20,Waterloo,IA,380,3.499,41.181592112764946,-85.66747883229814
4458,KUM & GO #1443,"I-80, EXIT 216",Williamsburg,IA,380,3.13066666,36.47489319344519,-77.93216143474007
4460,EXIT 62 TRUCKSTOP,"I-71, EXIT 62 & US-127",Glencoe,KY,415,3.16566666,31.913704541933456,-99.25761967197272
4463,QUIKTRIP #7901,"I-20, EXIT 556 & US-69",Lindale,TX,710,2.80733333,34.25663858698087,-81.60695384370723
4482,FLYING J TRAVEL PLAZA #777,"I-84, EXIT 54(FEDERAL WAY)",Boise,ID,785,3.809,35.44623444597953,-117.97454135293391
4482,FLYING J FUEL STOP #777,"I-84, EXIT 54(FEDERAL WAY)",Boise,ID,785,3.76566666,39.68875861997402,-113.85444087288775
4492,3 MILE CORNER TRUCK STOP,US-2 & US-95,Bonners Ferry,ID,970,3.734,38.56167457003368,-109.84647035399689
4525,STINKER #42,US-12/US-95 & SR-128,Lewiston,ID,970,3.69733333,35.34145088846769,-99.90240376923902
4528,WENATCHEE VALLEY TRUCK STOP,US-97 ALT,Wenatchee,WA,920,4.199,44.79772873189469,-77.71275608371184
4528,WENATCHEE VALLEY TRUCK STOP,US-97 ALT,Wenatchee,WA,920,4.119,39.086622290353304,-102.68669746060348
4528,WENATCHEE VALLEY TRUCK STOP,US-97 ALT,Wenatchee,WA,920,4.089,33.558401876039916,-87.26894032422686
4533,SPEEDWAY #1449,"I-65, EXIT 262B",Birmingham                              ,AL,615,2.97566666,31.526737089306057,-84.53428525982582
4544,BIG CHARLIES TRUCK PLAZA,"I-64, EXIT 282 & US-13",Virginia Beach,VA,130,3.489,32.29288708776498,-90.69088229558292
4555,PILOT TRAVEL CENTERS #406,"I-65, EXIT 22 & US-31A/SR-11",Cornersville,TN,460,3.799,33.689365925767625,-102.13790159149319
4560,FAST STOP TRAVEL CENTERS #1109,"I-15, EXIT 392",Plymouth,UT,835,3.58233333,32.41022059889333,-91.14733291432279
4563,PILOT TRAVEL CENTERS #299,"I-55/I-74/US-51, EXIT 160 & US-150/SR-9",Bloomington                             ,IL,280,3.599,32.79850536076959,-102.8867203605127
4563,PILOT TRAVEL CENTERS #299,"I-55/I-74/US-51, EXIT 160 & US-150/SR-9",Bloomington                             ,IL,280,3.399,34.27642753040771,-115.80631307239939
4563,PILOT TRAVEL CENTER #299,"I-55/I-74/US-51, EXIT 160 & US-150/SR-9",Bloomington                             ,IL,280,3.399,32.600603929421325,-70.35980109069928
4563,PILOT TRAVEL CENTERS #299,"I-55/I-74/US-51, EXIT 160 & US-150/SR-9",Bloomington                             ,IL,280,3.499,43.451481369396376,-113.64087731837445
4563,PILOT TRAVEL CENTER #299,"I-55/I-74/US-51, EXIT 160 & US-150/SR-9",Bloomington                             ,IL,280,3.499,31.203506184924635,-116.38258080819713
4563,PILOT TRAVEL CENTER #299,"I-55/I-74/US-51, EXIT 160 & US-150/SR-9",Bloomington                             ,IL,280,3.599,37.86767084355382,-76.07346253964221
4568,ONVO TRAVEL PLAZA,"I-90, EXIT 28",Fultonville,NY,12,3.199,36.155952404844925,-104.90826695535524
4568,ONVO TRAVEL PLAZA,"I-90, EXIT 28",Fultonville,NY,12,3.159,44.735679253629094,-87.48515129632462
4569,METROPOLIS TRUCK STOP,"I-24, EXIT 37 & US-45",Metropolis,IL,490,3.599,31.680583532520785,-103.54971351688836
4574,Circle K #4701432,"I-74, EXIT 174",Mahomet,IL,280,3.669,35.96783398568613,-100.42728646027643
4582,BIG CHIEF TRUCK STOP,"I-94/US-52, EXIT 61 & US-59/CR-82",Fergus Falls,MN,250,3.23566666,44.54205649913053,-106.89435139916017
4605,PILOT DEALER #898 SADLERS TRUCK STOP,"I-95, EXIT 11B & US-58",Emporia,VA,180,3.799,42.982606888409705,-102.84779971034949
4618,OUTPOST TRAVEL CENTER,"I-20, EXIT 5 & US-80",Greenwood,LA,745,2.899,42.2560810642392,-99.46497997067284
4620,PILOT TRAVEL CENTERS #95,"I-75, EXIT 329 & SR-44",Wildwood                                ,FL,225,3.22566666,33.8685424056741,-83.97919654538285
4620,PILOT TRAVEL CENTER #95,"I-75, EXIT 329 & SR-44",Wildwood                                ,FL,225,3.319,32.563313810850985,-94.42319028826041
4622,TA LEE HI TRAVEL PLAZA,"I-81,  EXIT 195",Lexington,VA,185,3.659,40.02964829886646,-72.82173914215116
4628,QUARLES #4601,US-29/US-17/US-15,Warrenton,VA,60,3.32233333,43.94063983691379,-117.90598030806123
4637,THORNTONS #369 DBA PILOT TRAVEL CENTER #514,"I-55, EXIT 126 & SR-10",Lincoln                                 ,IL,318,3.399,38.351443395208946,-94.8465838683986
4637,THORNTONS #369 DBA PILOT TRAVEL CENTER #514,"I-55, EXIT 126 & SR-10",Lincoln                                 ,IL,318,3.499,38.574190342048496,-90.7887605584141
4637,PILOT TRAVEL CENTER #514 - THORNTONS #369,"I-55, EXIT 126 & SR-10",Lincoln                                 ,IL,318,3.499,34.19968640490426,-73.9901506962863
4637,PILOT TRAVEL CENTER #514 - THORNTONS #369,"I-55, EXIT 126 & SR-10",Lincoln                                 ,IL,318,3.399,41.54239399787905,-117.54207381892861
4642,MARSHAL JUNCTION,"I-70, EXIT 147 & SR-1",Marshall                                ,IL,510,3.199,32.80565622836285,-91.3250207532392
4642,MARSHAL JUNCTION,"I-70, EXIT 147 & SR-1",Marshall                                ,IL,510,3.399,34.85518854606366,-77.31850357360216
4644,CIRCLE K #4706703,"I-80, EXIT 145A",Mokena,IL,290,3.399,36.381546579246255,-107.90361359403818
4644,CIRCLE K #4706703,"I-80, EXIT 145A",Mokena,IL,290,3.339,37.614155680266826,-76.18538257380312
4654,7-ELEVEN #35087,"I-490, EXIT 2 & SR-33 & SR-19",Bergen,NY,190,4.029,33.636145986226204,-119.0478295362854
4655,QUICKLEES TRAVEL CENTER,"I-86, EXIT 30 & CR-20",Belmont,NY,190,3.999,31.722552371088053,-83.3772685433135
4690,PWI #401,"I-20 & I-30, EXIT 1B",Aledo,TX,630,2.799,39.15930063662449,-73.34433894156734
4700,A C TRUCKSTOP,"I-80, EXIT 290",Laramie                                 ,WY,795,3.079,34.32945829860384,-87.14011691799689
4704,THE RIDGE,"I-68/US-219, EXIT 14 & US-40",Accident,MD,165,4.199,38.718573321339186,-98.0485378009776
4707,SMITHTON TRUCKSTOP,"I-70, EXIT 39 & SR-3059",Smithton,PA,165,3.899,32.315440729113035,-117.7559491763641
4729,MINIT MART #600244,"I-70, EXIT 131",Straughn,IN,457,3.859,37.217101527822265,-73.99430933386856
4742,FLYING J TRAVEL PLAZA #684,"I-94, EXIT 1 & SR-16",Beach,ND,807,3.96566666,37.98884148827379,-96.48518886542126
4750,BROOKE TRAVEL PLAZA,"I-80, EXIT 259",West Liberty,IA,380,2.98733333,30.777353052336405,-118.5501627832026
4762,TA MONROE TRAVEL CENTER,"I-75, EXIT 15",Monroe,MI,325,3.349,35.04906417290881,-85.5089464335619
4762,TA MONROE TRAVEL CENTER,"I-75, EXIT 15",Monroe,MI,325,3.249,32.016220154084614,-95.9081373211871
4762,TA MONROE TRAVEL CENTER,"I-75, EXIT 15",Monroe,MI,325,3.369,30.950624557091515,-113.78273412787946
4762,TA MONROE TRAVEL CENTER,"I-75, EXIT 15",Monroe,MI,325,3.299,44.84940348584918,-109.28640953448702
4806,TRACK AND TRAVEL,"I-20, EXIT 406",Weatherford,TX,630,2.91733333,34.83530767462084,-116.77546597720769
4818,PILOT TRAVEL CENTER #350,"I-84 & US-20, EXIT 95",Mountain Home,ID,785,3.799,42.148116687819524,-91.28532301457132
4818,PILOT TRAVEL CENTERS #350,"I-84 & US-20, EXIT 95",Mountain Home,ID,785,3.759,33.81960982145646,-88.89852603739953
4819,Alta Convenience #6333,"I-25, EXIT 11",Trinidad,CO,803,3.399,40.22254083335894,-94.71288508222779
4826,I-20 Truck Stop,"I-20, EXIT 165",Lincoln,AL,615,2.999,41.403417898345296,-79.14489334986925
4827,PETRO BEAUMONT #304,"I-10, EXIT 848",Beaumont,TX,610,3.33066666,38.934581109117666,-76.94955893459932
4837,SHELL,US-10 & SR-210,Motley,MN,522,3.399,37.073642828252375,-89.21878016584367
4856,PILOT TRAVEL CENTER #910- TOWN PUMP,"I-90, EXIT 274 & US-287",Three Forks,MT,786,3.59733333,36.17761371220903,-119.36217601462847
4858,PILOT TRAVEL CENTER #1346,"I-135, EXIT 31",Newton,KS,570,3.3115,35.23302399814493,-85.23851721261322
4858,PILOT DEALER #1346,"I-135, EXIT 31",Newton,KS,570,3.409,43.94293716371739,-99.10003915398242
4860,PILOT TRAVEL CENTER #476,"I-74, EXIT 32 & SR-17",Woodhull,IL,270,3.899,42.45929111681593,-91.72212583868065
4860,PILOT TRAVEL CENTERS #476,"I-74, EXIT 32 & SR-17",Woodhull,IL,270,3.899,44.47540365999769,-87.54596989905578
4872,TA COMMERCE TRAVEL CENTER,"I-85, EXIT 149 & US-441",Commerce,GA,16,3.21566666,31.864458352283172,-102.48816928364616
4874,PWI #110,"I-20, EXIT 112 & FM-1936",Odessa,TX,710,3.049,40.963012128054665,-74.1450747414103
4878,SHELL DBA ONE9 #1426,"I-84, EXIT 35",Nampa                                   ,ID,785,3.374,44.07510685231557,-113.30125666251094
4881,PETRO STOPPING CENTER #14,"I-295, EXIT 56",Bordentown,NJ,230,4.029,32.718495992484904,-86.42440963594814
4885,LOVES TRAVEL STOP #384,"I-70, EXIT 45",Greenville,IL,540,3.689,30.997444010501663,-119.78202100217098
4885,LOVES TRAVEL STOP #384,"I-70, EXIT 45",Greenville,IL,540,3.749,41.116809739350884,-73.76744472974096
4885,LOVES TRAVEL STOP #384,"I-70, EXIT 45",Greenville,IL,540,3.689,38.61709669769868,-114.37479333809543
4885,LOVES TRAVEL STOP #384,"I-70, EXIT 45",Greenville,IL,540,3.689,42.62743165137408,-115.25578849262126
4885,LOVES TRAVEL STOP #384,"I-70, EXIT 45",Greenville,IL,540,3.689,32.09658564939434,-103.34961834738779
4885,LOVES TRAVEL STOP #384,"I-70, EXIT 45",Greenville,IL,540,3.749,41.92900967789835,-101.32168569804597
4887,SUNOCO,"I-80 & I-90, EXIT 3",Wauseon                                 ,OH,550,3.699,33.02440980071617,-109.28499638385607
4894,CLOVERDALE TRAVEL PLAZA,"I-70, EXIT 41 & US-231",Cloverdale,IN,375,3.699,32.45483914298557,-90.74391695364376
4905,HY-MILER #2204,SR-250,Sandusky,OH,550,3.53233333,32.463986968964896,-97.85429509790183
4909,CIRCLE K #2723916,US-441/US-301/US/27/SR-500,Ocala,FL,140,3.459,42.21862080347073,-118.29122054794563
4910,PILOT TRAVEL CENTER #892,"I-70 EXIT 164, & US-50",Green River,UT,835,3.68566666,39.977958310443,-104.01739688723497
4918,PILOT TRAVEL CENTERS #219,"I-40, EXIT 398",Knoxville,TN,405,3.699,37.84598137153679,-79.47835432134147
4920,TA LAPLACE,"I-10, EXIT 209 & US-5",La Place,LA,600,3.22733333,35.38245726185254,-85.51492325690657
4921,PILOT TRAVEL CENTERS #231,"I-75, EXIT 29",Corbin,KY,410,3.609,43.158008112196626,-83.75645732100597
4927,CIRCLE K #2704886,"I-65, EXIT 205 & US-31/SR-22",Clanton,AL,720,3.20733333,35.88667661133953,-85.09415379582381
4933,VILLAGE TRUCK STOP,"I-81, EXIT 18",Rural Retreat                           ,VA,185,3.299,42.24899159207366,-104.45134893084834
4977,KWIK TRIP #331,SR-54,Wisconsin Rapids,WI,395,3.26233333,36.587023628553276,-115.0168038961612
4981,JOHNNYS MARKET,"I-94, EXIT 110 & US-27",Marshall,MI,385,3.499,35.65416644137361,-106.37664079834519
4983,KWIK TRIP #603,"I-94, EXIT 28 & SR-128",Wilson,WI,451,3.549,36.940196785044094,-78.41073499074204
4996,ZIP TRIP #54,"I-90, EXIT 452",Billings,MT,780,3.59066666,34.52066811246213,-70.97646011084645
5003,TRAILWAY TRUCK STOP,US-301/SR-304,Centreville                             ,MD,22,3.259,41.21414070264377,-95.30764926292193
5006,SUNOCO,US-1/US-9,Linden,NJ,79,3.799,37.54080585138719,-119.51498225384789
5024,I 55 MOTOR PLAZA,"I-55,  EXIT 180",Pevely,MO,540,2.99066666,33.48319042720226,-112.99775939328855
5030,YESWAY #1030,US-63 & E MARY ST,Ottumwa,IA,320,3.399,43.49361859911853,-103.8959712341867
5044,TA MOUNT VERNON TRAVEL CENTER,"I-44, EXIT 46 & SR-39/SR265",Mount Vernon,MO,535,3.409,35.75836832059817,-91.0707325703525
5050,ROCK PORT TRUCK PLAZA,"I-29 & US-136, EXIT 110",Rock Port,MO,400,3.099,38.15329291670983,-116.24531770973431
5056,TREX MART #16,"I-35, EXIT, 61 & US-69",Winston,MO,276,3.119,43.597081664468206,-72.83213506450592
5057,PHILLIPS 66,"I-35, EXIT 54 & I-35 BUS/US-36",Cameron,MO,276,3.099,39.36356993870988,-101.74581633577996
5060,CRAZY FREDS TRUCK SHOP,"I-40, EXIT 44 & US-66",Kingman,AZ,910,3.539,31.75347061062546,-74.37078910375885
5064,CLARK OIL #44,"I-59, EXIT 97",Laurel                                  ,MS,620,2.879,44.09748185420213,-80.97390986214891
5079,FASTLANE TAYLOR 63,US-61 & SR-6,Taylor,MO,494,3.01566666,39.415620796071266,-82.22813637422095
5085,K AN T TRUCKSTOP,"I-79, EXIT 137 & SR-310",Fairmont,WV,165,3.399,35.02358421985629,-89.6640210108884
5111,CIRCLE K #2723385,"I-59, EXIT 67 & US-49/SR-42",Hattiesburg,MS,620,3.149,32.08908108995081,-88.66080914740778
5117,CIRCLE K #4702361,"I-65, EXIT 130 & SR-334",Whitestown,IN,375,3.29233333,41.91037783905444,-88.09983823918759
5128,CASEYS #2769,"I-80, EXIT 220 & SR-149",Williamsburg,IA,380,3.14233333,39.301091338927705,-88.5639306487209
5131,TRAILS END TRUCK STOP,"I-29, EXIT 110 & US-136",Rock Port,MO,486,3.40566666,38.001916379644825,-92.31358843008194
5132,Travel Centers of America,"I-44, EXIT 208 & SR-19",Cuba,MO,574,3.26566666,43.40838874576436,-70.67929907585555
5160,FUEL MART #727,"I-70, EXIT 193",Quaker City                             ,OH,249,3.16566666,41.82895816836796,-83.3854716287152
5163,Blue Sky #733,"US-78, EXIT 81 & SR-178",Belden,MS,742,2.939,32.27512319599127,-81.15268058037394
5165,ONE9 #046,"I-65, EXIT 6 & SR-100",Franklin,KY,415,3.08566666,34.67583101693322,-76.37685924581629
5167,SPEEDWAY #7575,"I-65, EXIT 255",Hobart,IN,290,3.63233333,33.72733709721699,-109.21801186370755
5170,FLYING J #516,"I-76, EXIT 161 & I-70",Breezewood,PA,14,5.099,41.15919438859015,-115.80979204524697
5183,PETRO STOPPING CENTER #74,I-95 & EXIT 106,Kenly,NC,205,3.709,30.50298652103669,-95.85527817007006
5191,NORTH POINT PLAZA,"I-90 & I-94, EXIT 115",Poynette,WI,420,3.17233333,38.54834527306975,-94.29596521903633
5202,Chevron #306185,US-30,Montpelier,ID,825,3.699,41.43688028611036,-78.54091100250412
5203,OASIS TRAVEL CENTER,"I-10, EXIT 53",Robertsdale,AL,715,3.469,43.15148455142624,-97.81082103588321
5207,JJ TRAVEL PLAZA,"I-70, EXIT 70 & US-83",Oakley,KS,525,3.61566666,35.13122623073861,-91.45734872278436
5227,PILOT TRAVEL CENTERS #900,"I-95, EXIT 75",Dunn,NC,205,3.709,42.31885957008019,-93.64645307432708
5230,ONE9 #496,"I-80, EXIT 265",Atalissa,IA,270,3.01566666,31.65947605432811,-118.08986081213045
5232,CM EUNICE,US-190,Eunice,LA,730,3.399,42.696784376017774,-89.23925517015431
5234,SINCLAIR,SR-37,Monett,MO,277,3.29066666,31.912329934979738,-78.59783571128739
5236,FLYING J #875,"I-95,  EXIT 109",Elkton,MD,243,4.199,35.959309358405505,-112.1249725962098
5245,CASEYS #3842,US-36 & US-283,Norton,KS,357,3.15733333,41.95943048669331,-90.28341330367022
5247,EDGERTON TRAVEL PLAZA,"I-90, EXIT 160 & US-51",Edgerton,WI,420,3.199,32.24876141023161,-90.31947277767928
5249,Taylor's Stateline Travel Center,US-67 & SR-278,Neelyville,MO,275,2.999,33.438770928489625,-111.79075179718207
5254,TA CANDLER TRAVEL CENTER,"I-40, EXIT 37",Candler,NC,210,3.799,40.833788525896,-113.8268213134632
5255,7-ELEVEN #35788,"I-35, EXIT 215",Olathe,KS,400,3.339,40.80054804819112,-70.99740285117576
5258,PT TRUCK STOP,"I-12, EXIT 42",Hammond                                 ,LA,623,3.249,39.61721449327946,-100.31404151734813
5282,CASEYS #3548,US-54 & US-61,Pratt,KS,357,3.14066666,40.4092266670065,-108.62891356382353
5285,TULLO TRUCK STOP,"I-95, EXIT 15E & US-1/US-9",Kearny,NJ,79,3.799,38.140866650213944,-111.43377277728125
5297,ERNIES TRUCK STOP,"I-90,  EXIT 179 & I-90 BUS/SR-17",Moses Lake,WA,920,3.999,33.77698588360429,-86.61991432083825
5297,ERNIES TRUCK STOP,"I-90,  EXIT 179 & I-90 BUS/SR-17",Moses Lake,WA,920,3.949,35.18543990255879,-89.52773513363606
5297,ERNIES TRUCK STOP,"I-90,  EXIT 179 & I-90 BUS/SR-17",Moses Lake,WA,920,4.179,32.723965752021385,-87.82239385062913
5299,Sudden Service #62,"I-65, EXIT 6 & SR-100",Franklin,KY,460,3.084,43.62675842000442,-115.59969862442739
5302,ONE9 #258,"I-81, EXIT 150 & US-220 ALT & US-11",Troutville,VA,185,3.03233333,38.75087692149181,-75.32327082507815
5306,PILOT TRAVEL CENTERS #11,"I-76, EXIT 232",North Lima                              ,OH,573,3.799,36.012771251454595,-100.53668015954759
5309,NEWBORN TRUCK STOP,I-20 EXIT 5,Tallapoosa,GA,48,3.40733333,36.93008705466199,-104.3315296784821
5310,FLYING J #576,"I-35, EXIT 69",Northfield,MN,515,3.859,44.20925009417723,-96.88192763761305
5324,HY-MILER #2245,SR-53,Fremont,OH,550,3.38233333,32.3002710467412,-100.49669671261859
5341,KWIK STAR #1160,"US-75, EXIT 118 & SR-3",Le Mars,IA,408,3.299,38.793447480251956,-76.8211498430427
5349,JET FOOD STORE #17,US-1/SR=4/SR-540 & US-220/SR-47,Wrens,GA,135,3.41566666,37.58833018326699,-73.5369512401054
5363,SPEEDWAY #6767,"I-75, EXIT 20",Manheim,PA,70,4.499,39.17181353151972,-104.82733917751969
5389,FLYING J TRAVEL PLAZA #744,"I-15, EXIT 343",Ogden,UT,835,3.749,30.27165275731261,-76.80320962700226
5391,PWI #605,"I-10, EXIT 378",San Simon,AZ,640,2.959,43.08185863416227,-80.92384352334665
5399,FLYING J TRAVEL PLAZA #750,"I-81 & I-77, EXIT 80",Max Meadows,VA,185,3.549,43.981774237254186,-73.45961638276191
5407,CASEYS #4535,US 81,Concordia                               ,KS,570,2.91233333,38.476997753838134,-107.71248439070561
5414,One9 #1216,"I-10 ,EXIT 200 & SR-84",Eloy,AZ,930,3.199,40.449762358153386,-91.15204249395104
5414,Pride Travel Center dba One9 #1216,"I-10 ,EXIT 200 & SR-84",Eloy,AZ,930,3.199,43.837490717659435,-106.27277076297777
5419,USA TRAVEL CENTER,"I-40, EXIT 48 & US-93",Kingman,AZ,910,3.399,40.60857951470098,-78.7952754757813
5422,K AND H TRUCK PLAZA,"I-57, EXIT 283 & US-24",Gilman,IL,290,3.159,32.28808564371392,-119.73379047144678
5422,K AND H TRUCK PLAZA,"I-57, EXIT 283 & US-24",Gilman,IL,290,3.099,38.6443254025022,-91.7590418556802
5424,WK TRUCK STOP,"US-231 & SR-9001, EXIT 75",Beaver Dam,KY,340,3.399,39.10072569574284,-103.0398284364041
5435,MEADE AUTO AND TRUCK PLAZA,US-54,Meade                                   ,KS,525,3.799,36.36196006953579,-103.86581464610899
5436,PARKWAY MARATHON,"US-79, EXIT 94",Caneyville,KY,415,3.73233333,41.04666353437084,-87.75468380675414
5446,PETRO STOPPING CENTER #308,"I-20, EXIT 8 & SR-526",Shreveport,LA,745,3.17566666,44.01550522153522,-77.4257775343003
5462,BOOZER KWIK STOP,"I-15, EXIT 118",Idaho Falls                             ,ID,825,3.44733333,43.88352769360164,-89.5402304303337
5464,PILOT TRAVEL CENTERS #48,"I-65, EXIT 86",Glendale,KY,415,3.609,36.76259057106198,-77.34135106766388
5474,One9 #88,"I-95/SR-9, EXIT 201 & SR-520",Cocoa,FL,143,3.37566666,31.69857068761133,-106.7701444059485
5477,CHEVRON #383766,"I-5, EXIT 216",Halsey,OR,935,3.099,44.772617984435016,-94.02490726175094
5479,PILOT TRAVEL CENTERS #94,"I-75, EXIT 161",Punta Gorda,FL,225,3.799,42.58347129668901,-97.4731730466462
5479,PILOT TRAVEL CENTER #94,"I-75, EXIT 161",Punta Gorda,FL,225,3.799,31.869940218049003,-119.41775502484519
5491,49ER FUEL CENTER,"I-75, EXIT 49",East Bernstadt                          ,KY,410,2.999,43.81262823926058,-92.159392842963
5492,BFS FOODS #68,"I-70, EXIT 3",Hancock                                 ,MD,22,4.129,43.04844543093192,-86.92378379269125
5522,ONE9 #301,"I-55,  EXIT 40",Marston,MO,275,3.109,37.782570856891084,-90.4042797790465
5523,TA LIMON TRAVEL CENTER,"I-70, EXIT 359 & US-24",Limon,CO,800,3.92066666,38.86913153617394,-83.18600506082893
5529,FLYING J #549,"I-77, EXIT 100 & 101",Mount Airy,NC,65,3.599,35.985040558051956,-91.43302357734615
5537,HUCKS TRAVEL CENTER #51 DBA FLYING J #889,"I-57/I-64, EXIT 95 & SR-15",Mount Vernon,IL,574,3.459,30.82142458233047,-116.66248725746216
5537,HUCKS TRAVEL CENTER #51 dba FLYING J #889,"I-57/I-64, EXIT 95 & SR-15",Mount Vernon,IL,574,3.499,35.027958624688516,-114.17772379576442
5537,HUCKS TRAVEL CENTER #51 DBA FLYING J #889,"I-57/I-64, EXIT 95 & SR-15",Mount Vernon,IL,574,3.359,42.042801728970176,-90.17627112280238
5537,HUCKS TRAVEL CENTER #51 DBA FLYING J #889,"I-57/I-64, EXIT 95 & SR-15",Mount Vernon,IL,574,3.599,30.069480345069042,-106.251040401318
5537,HUCKS TRAVEL CENTER #51 dba FLYING J #889,"I-57/I-64, EXIT 95 & SR-15",Mount Vernon,IL,574,3.399,35.00248757536716,-116.0177435482617
5554,Southfork TRUCK STOP,"I-30, EXIT 63 & SR-53",Gurdon,AR,635,3.459,35.97253040386415,-98.51986282757267
5560,MIDWAY TRAVEL PLAZA,I-70 EXIT 121 & US-40,Columbia,MO,310,3.539,38.060934044068844,-92.28387009581724
5569,TA EXPRESS NORWOOD #0450,US-60,Norwood,MO,535,3.449,43.79783424619141,-103.56270058251967
5570,PETRO STOPPING CENTER #310,"I-12, EXIT 40 & US-51 BUS",Hammond,LA,725,3.249,35.19518991548942,-83.97831488871111
5579,SAPP BROS TRAVEL CENTER,US-30,Columbus,NE,486,3.219,35.20429802844342,-87.81146959493776
5592,TA COLUMBIA NORTH,"I-20, EXIT 71 & US-21",Columbia,SC,46,3.439,41.06251872164623,-103.3590819454164
5597,CM LAKE CHARLES FUEL STOP 36,"I-10, EXIT 36 & SR-397",Lake Charles,LA,690,3.299,36.78326911334711,-82.25637355457198
5601,BP,"I-24, EXIT 16",Paducah,KY,490,3.429,33.36907234409973,-87.56524787334823
5603,TA NORTH CANTON TRAVEL CENTER,"I-77, EXIT 111",North Canton,OH,249,3.624,36.786592741990404,-88.12773106410489
5606,FLYING J #511,"I-94, EXIT 147",Mandan,ND,273,3.95233333,32.112855305696996,-92.3286149606466
5607,RICE MART,"I-45 & FM 1603, EXIT 238",Rice,TX,630,3.019,32.64580479759335,-119.43051659557236
5608,SHOP A LOTT  #3,US-84 & US-171,Mansfield                               ,LA,766,3.13566666,37.475516591092195,-85.17464082615555
5613,CHEVRON #381108,"I-82, EXIT 36",Yakima,WA,925,3.999,36.28388174256822,-101.19791044454217
5618,MCCLURE OIL #52,"I-65/US-52, EXIT 140 & SR-32",Lebanon                                 ,IN,375,3.584,43.7226885160215,-72.86951449206722
5649,Fast Stop,"I-10, EXIT 182 & SR-22",Sorrento                                ,LA,623,3.699,35.4359084867495,-79.10076144613973
5651,LOVES TRAVEL STOP #303,"I-64, EXIT 43 & SR-395",Waddy,KY,415,3.749,38.70882525417065,-90.61527652343439
5659,TEX-BEST #526,US-59 & US-281,George West,TX,625,3.299,39.48396431879296,-107.39090090903653
5660,Pride Convenience Store,"I-90, EXIT 51 & I-291",Chicopee,MA,100,3.509,30.196416848825006,-109.81413033611668
5661,TA Express #287,"I-40, EXIT 288 & SR-111",Cookeville,TN,460,3.299,39.95306058025066,-102.98075811612254
5667,PILOT TRAVEL CENTERS #393,"I-40, EXIT 24 & SR-209",Waynesville                             ,NC,210,3.759,32.67053950304627,-96.17160282099907
5669,KWIK TRIP #497,I-90 EXIT 266 & CR-12,Dakota,MN,515,3.474,44.416054762041824,-105.19672449805265
5670,TA MOUNT VERNON TRAVEL CENTER,"I-57 & I-64, EXIT 95",Mount Vernon,IL,574,3.449,32.2299409162967,-94.25352523037586
5670,TA MOUNT VERNON TRAVEL CENTER,"I-57 & I-64, EXIT 95",Mount Vernon,IL,574,3.499,36.219361855905355,-111.7314787243407
5670,TA MOUNT VERNON TRAVEL CENTER,"I-57 & I-64, EXIT 95",Mount Vernon,IL,574,3.539,31.28024502117966,-71.11435935872501
5674,TA MADISON TRAVEL CENTER,"I-20, EXIT 114 & US-441",Madison,GA,16,3.89066666,44.95311377768921,-114.60377225175031
5677,YESWAY #1178,CR-13,Kadoka,SD,506,3.189,37.53292515496864,-73.4027930172814
5691,Pilot Travel Center #666,"I-94, EXIT 30",Benton Harbor,MI,465,3.059,38.930775259800654,-74.32109942986526
5700,BEACON & BRIDGE #18,US-131 BUS,Big Rapids,MI,456,3.559,31.006147160826412,-93.7319759090251
5700,BEACON & BRIDGE #18,US-131 BUS,Big Rapids,MI,456,3.319,41.24940705598767,-83.75448640819579
5700,BEACON & BRIDGE #18,US-131 BUS,Big Rapids,MI,456,3.339,33.148583896433784,-98.1975851013706
5718,TOOT N TOTUM #104,US-287,Dalhart,TX,585,3.199,43.470814341610705,-88.4982711228781
5721,TA BALTIMORE SOUTH TRAVEL CENTER,"I-95, EXIT 41A & SR-175 & US-1",Jessup,MD,22,4.599,33.07709460723011,-102.97120312894407
5729,MENOMONIE FARMERS UNION,"I-94, EXIT 45 & CR-B",Menomonie,WI,295,3.649,32.860315809955,-104.94204901072773
5730,SCOTTS QUICK STOP,SR-53 & SR-46,Marlette,MI,342,3.399,30.548245017721424,-91.08851069152432
5739,PILOT TRAVEL CENTERS #284,"I-75, EXIT 18",Monroe                                  ,MI,325,3.399,37.08100417664999,-95.09351629080098
5739,PILOT TRAVEL CENTERS #284,"I-75, EXIT 18",Monroe                                  ,MI,325,3.299,38.472616998939245,-91.02318154250095
5739,PILOT TRAVEL CENTERS #284,"I-75, EXIT 18",Monroe                                  ,MI,325,3.559,30.985629591425287,-105.66697093564885
5739,PILOT TRAVEL CENTERS #284,"I-75, EXIT 18",Monroe                                  ,MI,325,3.249,41.63291425042516,-101.65210840915023
5739,PILOT TRAVEL CENTERS #284,"I-75, EXIT 18",Monroe                                  ,MI,325,3.439,36.799332521220414,-115.80510196855454
5751,TA LAKE PARK TRAVEL CENTER,"I-75,  EXIT 2",Lake Park,GA,20,3.31566666,37.8658540399137,-117.38618138638971
5754,ROAD TRIP OASIS PERRY,"I-69, EXIT 105 & SR-52",Perry,MI,406,3.799,36.61144120407342,-107.32714351634918
5754,ROAD TRIP OASIS PERRY,"I-69, EXIT 105 & SR-52",Perry,MI,406,3.699,36.01144591312989,-116.28765703347271
5758,SPEEDY Q MARKET #8206,"I-94, EXIT 274",Port Huron                              ,MI,325,3.899,38.394604969623266,-114.81126456826297
5770,Kwik Trip # 1281,"I-43, EXIT 107",Belgium                                 ,WI,444,3.25566666,32.32860368896069,-79.35357973030315
5771,DUNES AUTO TRUCK PLAZA,"I-94, EXIT 12",Sawyer,MI,465,3.499,32.728921957429066,-118.05631514916554
5771,DUNES AUTO TRUCK PLAZA,"I-94, EXIT 12",Sawyer,MI,465,3.599,42.92678431520276,-87.05286030326286
5774,PJ TRAVEL PLAZA,"I-80, EXIT 192 & SR-880",Loganton,PA,138,3.479,44.19173193200449,-106.37211255922998
5780,BILLS TRUCKSTOP,"I-85, EXIT 86                 ",Linwood                                 ,NC,65,3.449,35.599639744196296,-76.42271596459368
5799,STAPLES OIL,"I-90, EXIT 146",Alden,MN,425,3.299,34.06117009715331,-95.75038577112502
5801,TA WYTHEVILLE TRAVEL CENTER,"I-81, EXIT 72 & I-77, EXIT 41",Wytheville,VA,185,3.519,39.65999314858524,-104.72117703360871
5821,TA PORTLAND TRAVEL CENTER,"I-5,  EXIT 278",Aurora,OR,935,4.03233333,36.13101256647145,-94.11805321552828
5823,ENMARKET #863,"I-95, EXIT 8 & SR-88",Hardeeville,SC,195,3.08233333,30.380795334905173,-100.90209904773656
5830,115 TRUCKSTOP #5001,"I-94, EXIT 115",Marshall,MI,431,3.429,32.34228896049286,-91.78494676650848
5830,115 TRUCKSTOP #5001,"I-94, EXIT 115",Marshall,MI,431,3.499,40.739583432710965,-114.27335658368258
5830,115 TRUCKSTOP #5001,"I-94, EXIT 115",Marshall,MI,431,3.589,39.88385912865227,-70.15047485937245
5842,PETRO STOPPING CENTER #6367,"I-57,  EXIT 335",Monee,IL,290,3.459,30.406439887552253,-98.72220611516413
5842,PETRO STOPPING CENTER #6367,"I-57,  EXIT 335",Monee,IL,290,3.499,33.32958242899424,-102.58846801463156
5842,PETRO STOPPING CENTER #6367,"I-57,  EXIT 335",Monee,IL,290,3.399,33.46612194882107,-84.48950758418675
5860,SPEEDWAY #4610,"I-35, EXIT 59 & SR-21",Faribault,MN,448,3.759,40.078391153980924,-101.80502967523338
5873,SOUTHERN VALLEY COOP,ST 14 BYPASS,Mankato                                 ,MN,425,3.499,30.29565806631546,-78.33628474856212
5901,ROTHSAY TRUCK STOP,"I-94, EXIT 38",Rothsay,MN,341,3.209,31.561628729768607,-97.28646378197874
5903,Circle K #2746447,I-94/US-52 EXIT 127 & US-71/SR-28,Sauk Centre,MN,250,3.189,41.99874128059784,-84.02207933672825
5907,SPEEDWAY #4035,CR-101,Shakopee,MN,448,3.599,32.678169930815,-114.62733917790567
5909,SINCLAIR,"I-90, EXIT 233",Saint Charles,MN,515,3.529,39.79119161777812,-77.69404072224441
5927,HARRISONBURG TRAVEL CENTER,"I-81,  EXIT 243 & US-11",Harrisonburg,VA,185,2.899,33.5727417157009,-83.2141006610945
5935,WESTHAMPTON VALERO,I-295 EXIT 47A,Mount Holly                             ,NJ,160,3.329,31.491620891390177,-109.41416107690172
5942,EXPRESS MART TRUCK STOP,"I-55, EXIT 185 & US-67/US-61",Barnhart,MO,540,2.99733333,33.64758286499181,-112.73569951271067
5944,LAKE MILLS TRAVEL PLAZA,"I-94, EXIT 259 & SR- 89/CR-G",Lake Mills,WI,420,3.36066666,40.83400397783489,-104.18538256371878
5946,PILOT TRAVEL CENTERS #918,I-90 EXIT 55,Rapid City,SD,506,3.999,42.835447021594284,-71.19647069840478
5949,EXXON,US-59 & LOOP 151,Texarkana                               ,TX,723,3.16566666,42.45329796850487,-107.15842127164707
5951,ROAD RANGER #157,I-64 EXIT 41,Okawville,IL,540,3.799,35.95775294427682,-97.19363955266834
5963,OZONA ONE STOP,"I-10, EXIT 372",Ozona                                   ,TX,710,2.98233333,40.021277048559696,-118.49898871413319
5965,TRUCK TOWNE,I-29 EXIT 47 & SR-46,Beresford                               ,SD,572,3.159,33.07476443123731,-100.13862352168837
5971,WACO TRAVEL CENTER,SR-19,Perry,FL,20,3.699,34.3972159539152,-91.43399922834486
5979,TA LAFAYETTE TRAVEL CENTER,"I-10 & SR-182, EXIT 101",Lafayette,LA,600,3.134,43.445037277816795,-72.34376937460175
5980,THRIFT MART TRUCK PLAZA,"I-85/US-460, EXIT 63A & US-1/US-460 BUS",Petersburg,VA,180,3.199,30.19502885266104,-94.16319775299678
5990,360 TRUCK STOP,US-360,Amelia Court House,VA,180,3.599,31.28262796281702,-79.04463369111562
5996,Fast Stop Travel Centers #1134,"I-80/US-30, EXIT 99 & US-191/SR-373",Rock Springs,WY,827,3.499,33.11829382719041,-92.64361787155497
5999,PILOT TRAVEL STOP #492,"I-30, EXIT 78 & SR-7",Arkadelphia,AR,635,3.559,30.397983058107297,-117.9607493282241
